city,station,pollutant_id,pollutant_avg,latitude,longitude,last_update
Rajgir,"Dangi Tola, Rajgir - BSPCB",CO,42,25.0328,85.41948,09-07-2026 21:00:00
Saharsa,"Police Line, Saharsa - BSPCB",PM2.5,,25.892357,86.590325,09-07-2026 21:00:00
Saharsa,"Police Line, Saharsa - BSPCB",OZONE,19,25.892357,86.590325,09-07-2026 21:00:00
Samastipur,"DM Office_Kasipur, Samastipur - BSPCB",PM2.5,95,25.859655,85.77944,09-07-2026 21:00:00
Siwan,"Chitragupta Nagar, Siwan - BSPCB",CO,,26.2271665,84.3570427,09-07-2026 21:00:00
Chandigarh,"Sector-25, Chandigarh - CPCC",SO2,6,30.751462,76.762879,09-07-2026 21:00:00
Chandigarh,"Sector 22, Chandigarh - CPCC",NO2,8,30.735567,76.775714,09-07-2026 21:00:00
Chandigarh,"Sector-53, Chandigarh - CPCC",PM2.5,13,30.719859,76.738637,09-07-2026 21:00:00
Chandigarh,"Sector-53, Chandigarh - CPCC",PM10,13,30.719859,76.738637,09-07-2026 21:00:00
Bhilai,"32Bungalows, Bhilai - CECB",SO2,,21.194815,81.31477,09-07-2026 21:00:00
Bhilai,"32Bungalows, Bhilai - CECB",OZONE,23,21.194815,81.31477,09-07-2026 21:00:00
Bhilai,"Hathkhoj, Bhilai - CECB",PM2.5,43,21.224231,81.40835,09-07-2026 21:00:00
Chhal,"Nawapara SECL Colony, Chhal - CECB",PM10,37,22.118125,83.140608,09-07-2026 21:00:00
Chhal,"Nawapara SECL Colony, Chhal - CECB",NO2,6,22.118125,83.140608,09-07-2026 21:00:00
Nalbari,"Bata Chowk, Nalbari - PCBA",OZONE,19,26.446912,91.439057,09-07-2026 21:00:00
Silchar,"Tarapur, Silchar - PCBA",NH3,1,24.82827,92.79525,09-07-2026 21:00:00
Silchar,"Tarapur, Silchar - PCBA",SO2,6,24.82827,92.79525,09-07-2026 21:00:00
Silchar,"Tarapur, Silchar - PCBA",CO,35,24.82827,92.79525,09-07-2026 21:00:00
Araria,"Kharahiya Basti, Araria - BSPCB",CO,23,26.146529,87.454184,09-07-2026 21:00:00
Arrah,"New DM Office, Arrah - BSPCB",SO2,5,25.5626095,84.663264,09-07-2026 21:00:00
Aurangabad,"Gurdeo Nagar, Aurangabad - BSPCB",PM2.5,,24.75746,84.366208,09-07-2026 21:00:00
Aurangabad,"Gurdeo Nagar, Aurangabad - BSPCB",SO2,12,24.75746,84.366208,09-07-2026 21:00:00
Begusarai,"Lohiyanagar, Begusarai - BSPCB",NO2,9,25.42742023,86.13886079,09-07-2026 21:00:00
Begusarai,"Lohiyanagar, Begusarai - BSPCB",CO,17,25.42742023,86.13886079,09-07-2026 21:00:00
Bettiah,"Kamalnath Nagar, Bettiah - BSPCB",PM10,,26.80365,84.51954,09-07-2026 21:00:00
Bettiah,"Kamalnath Nagar, Bettiah - BSPCB",NH3,,26.80365,84.51954,09-07-2026 21:00:00
Bettiah,"Kamalnath Nagar, Bettiah - BSPCB",CO,40,26.80365,84.51954,09-07-2026 21:00:00
Bhagalpur,"DM Office_Kachari Chowk, Bhagalpur - BSPCB",SO2,21,25.251013,86.989001,09-07-2026 21:00:00
Bhagalpur,"Mayaganj, Bhagalpur - BSPCB",PM10,,25.265194,87.012947,09-07-2026 21:00:00
Korba,"Rampur, Korba - CECB",CO,11,22.368195,82.746431,09-07-2026 21:00:00
Kunjemura,"OP Jindal School, Kunjemura - CECB",CO,21,22.12665,83.483212,09-07-2026 21:00:00
Milupara,"Govt. Higher Secondary School, Milupara - CECB",PM2.5,19,22.1910172,83.5197009,09-07-2026 21:00:00
Milupara,"Govt. Higher Secondary School, Milupara - CECB",PM10,28,22.1910172,83.5197009,09-07-2026 21:00:00
Milupara,"Govt. Higher Secondary School, Milupara - CECB",OZONE,76,22.1910172,83.5197009,09-07-2026 21:00:00
Raipur,"Bhatagaon New ISBT, Raipur - CECB",NH3,2,21.219665,81.630094,09-07-2026 21:00:00
Raipur,"Bhatagaon New ISBT, Raipur - CECB",SO2,3,21.219665,81.630094,09-07-2026 21:00:00
Raipur,"Siltara Phase-II, Raipur - CECB",PM2.5,37,21.371751,81.664929,09-07-2026 21:00:00
Raipur,"AIIMS, Raipur - CECB",PM2.5,14,21.258815,81.578979,09-07-2026 21:00:00
Raipur,"Krishak Nagar, Raipur - CECB",PM10,14,21.237755,81.705301,09-07-2026 21:00:00
Raipur,"Krishak Nagar, Raipur - CECB",CO,11,21.237755,81.705301,09-07-2026 21:00:00
Raipur,"Krishak Nagar, Raipur - CECB",OZONE,6,21.237755,81.705301,09-07-2026 21:00:00
Tumidih,"OP Jindal Industrial Park, Tumidih - CECB",PM10,62,22.06631475,83.33820077,09-07-2026 21:00:00
Tumidih,"OP Jindal Industrial Park, Tumidih - CECB",CO,20,22.06631475,83.33820077,09-07-2026 21:00:00
Visakhapatnam,"GVM Corporation, Visakhapatnam - APPCB",OZONE,30,17.72,83.3,09-07-2026 21:00:00
Naharlagun,"Naharlagun, Naharlagun - APSPCB",OZONE,6,27.103358,93.679645,09-07-2026 21:00:00
Byrnihat,"Central Academy for SFS, Byrnihat - PCBA",NH3,,26.071318,91.87488,09-07-2026 21:00:00
Byrnihat,"Central Academy for SFS, Byrnihat - PCBA",OZONE,31,26.071318,91.87488,09-07-2026 21:00:00
Guwahati,"Railway Colony, Guwahati - PCBA",PM2.5,17,26.181742,91.78063,09-07-2026 21:00:00
Guwahati,"Railway Colony, Guwahati - PCBA",SO2,41,26.181742,91.78063,09-07-2026 21:00:00
Guwahati,"Railway Colony, Guwahati - PCBA",CO,14,26.181742,91.78063,09-07-2026 21:00:00
Guwahati,"LGBI Airport, Guwahati - PCBA",PM10,42,26.10887,91.589544,09-07-2026 21:00:00
Guwahati,"Pan Bazaar, Guwahati - PCBA",NO2,0,26.1875,91.744194,09-07-2026 21:00:00
Nalbari,"Bata Chowk, Nalbari - PCBA",CO,21,26.446912,91.439057,09-07-2026 21:00:00
Muzaffarpur,"Muzaffarpur Collectorate, Muzaffarpur - BSPCB",PM10,,26.1209,85.3647,09-07-2026 21:00:00
Muzaffarpur,"Muzaffarpur Collectorate, Muzaffarpur - BSPCB",NH3,,26.1209,85.3647,09-07-2026 21:00:00
Muzaffarpur,"Muzaffarpur Collectorate, Muzaffarpur - BSPCB",SO2,6,26.1209,85.3647,09-07-2026 21:00:00
Patna,"Muradpur, Patna - BSPCB",CO,49,25.619651,85.147382,09-07-2026 21:00:00
Patna,"DRM Office Danapur, Patna - BSPCB",PM2.5,32,25.586562,85.043586,09-07-2026 21:00:00
Patna,"DRM Office Danapur, Patna - BSPCB",NO2,31,25.586562,85.043586,09-07-2026 21:00:00
Patna,"Samanpura, Patna - BSPCB",PM10,89,25.596727,85.085624,09-07-2026 21:00:00
Patna,"Samanpura, Patna - BSPCB",NO2,18,25.596727,85.085624,09-07-2026 21:00:00
Patna,"IGSC Planetarium Complex, Patna - BSPCB",PM2.5,60,25.610369,85.132568,09-07-2026 21:00:00
Patna,"IGSC Planetarium Complex, Patna - BSPCB",NO2,3,25.610369,85.132568,09-07-2026 21:00:00
Patna,"IGSC Planetarium Complex, Patna - BSPCB",SO2,40,25.610369,85.132568,09-07-2026 21:00:00
Purnia,"Mariam Nagar, Purnia - BSPCB",PM2.5,58,25.366336,87.117468,09-07-2026 21:00:00
Chittoor,"Gangineni Cheruvu, Chittoor - APPCB",NO2,26,13.20488,79.097889,09-07-2026 21:00:00
Chittoor,"Gangineni Cheruvu, Chittoor - APPCB",OZONE,47,13.20488,79.097889,09-07-2026 21:00:00
Eluru,"District Court, Eluru - APPCB",PM2.5,64,16.711754,81.092095,09-07-2026 21:00:00
Guntur,"Rajendra Nagar North, Guntur - APPCB",PM2.5,51,16.316553,80.413302,09-07-2026 21:00:00
Kadapa,"Yerramukkapalli, Kadapa - APPCB",PM10,,14.465052,78.824187,09-07-2026 21:00:00
Kadapa,"Yerramukkapalli, Kadapa - APPCB",CO,18,14.465052,78.824187,09-07-2026 21:00:00
Kurnool,"Sita Rama Nagar, Kurnool - APPCB",NH3,5,15.83411,78.028546,09-07-2026 21:00:00
Machilipatnam,"Srinivas Nagar Colony, Machilipatnam - APPCB",NO2,20,16.186555,81.13219,09-07-2026 21:00:00
Nellore,"Ambedkar Nagar, Nellore - APPCB",PM10,61,14.438164,79.966814,09-07-2026 21:00:00
Rajamahendravaram,"Anand Kala Kshetram, Rajamahendravaram - APPCB",NO2,3,16.9872867,81.7363176,09-07-2026 21:00:00
Rajamahendravaram,"Anand Kala Kshetram, Rajamahendravaram - APPCB",NH3,1,16.9872867,81.7363176,09-07-2026 21:00:00
Tirumala,"Toll Gate, Tirumala - APPCB",NO2,61,13.67,79.35,09-07-2026 21:00:00
Tirupati,"Vaikuntapuram, Tirupati - APPCB",PM2.5,64,13.615387,79.40923,09-07-2026 21:00:00
Tirupati,"Vaikuntapuram, Tirupati - APPCB",NH3,5,13.615387,79.40923,09-07-2026 21:00:00
Tirupati,"Vaikuntapuram, Tirupati - APPCB",SO2,18,13.615387,79.40923,09-07-2026 21:00:00
Vijayawada,"HB Colony, Vijayawada - APPCB",NO2,12,16.536107,80.594233,09-07-2026 21:00:00
Vijayawada,"HB Colony, Vijayawada - APPCB",SO2,11,16.536107,80.594233,09-07-2026 21:00:00
Vijayawada,"Kanuru, Vijayawada - APPCB",OZONE,32,16.486692,80.699436,09-07-2026 21:00:00
Visakhapatnam,"GVM Corporation, Visakhapatnam - APPCB",NO2,50,17.72,83.3,09-07-2026 21:00:00
Bhagalpur,"Mayaganj, Bhagalpur - BSPCB",OZONE,20,25.265194,87.012947,09-07-2026 21:00:00
Bihar Sharif,"D M Colony, Bihar Sharif - BSPCB",PM2.5,64,25.204762,85.51496,09-07-2026 21:00:00
Bihar Sharif,"D M Colony, Bihar Sharif - BSPCB",OZONE,2,25.204762,85.51496,09-07-2026 21:00:00
Gaya,"Collectorate, Gaya - BSPCB",PM10,,24.7955,84.9994,09-07-2026 21:00:00
Gaya,"Collectorate, Gaya - BSPCB",SO2,7,24.7955,84.9994,09-07-2026 21:00:00
Gaya,"Kareemganj, Gaya - BSPCB",OZONE,29,24.792403,84.992416,09-07-2026 21:00:00
Katihar,"Mirchaibari, Katihar - BSPCB",PM2.5,9,25.560083,87.553265,09-07-2026 21:00:00
Munger,"Town Hall, Munger - BSPCB",NH3,3,25.376776,86.471523,09-07-2026 21:00:00
Muzaffarpur,"MIT-Daudpur Kothi, Muzaffarpur - BSPCB",PM2.5,34,26.1403345,85.3650192,09-07-2026 21:00:00
Amaravati,"Secretariat, Amaravati - APPCB",NH3,3,16.5150833,80.5181667,09-07-2026 21:00:00
Bhavnagar,"Vidhyanagar, Bhavnagar - Nexteng Enviro",SO2,7,21.755417,72.139056,09-07-2026 21:00:00
Bhavnagar,"Vidhyanagar, Bhavnagar - Nexteng Enviro",CO,80,21.755417,72.139056,09-07-2026 21:00:00
Gandhinagar,"Sector-10, Gandhinagar - GPCB",NH3,1,23.221714,72.654328,09-07-2026 21:00:00
Gandhinagar,"GIFT City, Gandhinagar - IITM",NO2,,23.163798,72.677768,09-07-2026 21:00:00
Gandhinagar,"GIFT City, Gandhinagar - IITM",CO,39,23.163798,72.677768,09-07-2026 21:00:00
Mehsana,"Sadanand Nagar, Mehsana - Nexteng Enviro",SO2,13,23.59315,72.372792,09-07-2026 21:00:00
Mehsana,"Sadanand Nagar, Mehsana - Nexteng Enviro",OZONE,9,23.59315,72.372792,09-07-2026 21:00:00
Rajkot,"Mavdi, Rajkot - Nexteng Enviro",PM10,60,22.248853,70.776774,09-07-2026 21:00:00
Rajkot,"Mavdi, Rajkot - Nexteng Enviro",NO2,57,22.248853,70.776774,09-07-2026 21:00:00
Rajkot,"Mavdi, Rajkot - Nexteng Enviro",OZONE,7,22.248853,70.776774,09-07-2026 21:00:00
Surat,"Katargam, Surat - Nexteng Enviro",CO,41,21.217779,72.834787,09-07-2026 21:00:00
Vadodara,"Bapunagar, Vadodara - Nexteng Enviro",SO2,6,22.320153,73.216285,09-07-2026 21:00:00
Vatva,"Phase-4 GIDC, Vatva - GPCB",PM10,119,22.969611,72.6435,09-07-2026 21:00:00
Vatva,"Phase-4 GIDC, Vatva - GPCB",CO,34,22.969611,72.6435,09-07-2026 21:00:00
Ambala,"Patti Mehar, Ambala - HSPCB",PM10,82,30.379589,76.778328,09-07-2026 21:00:00
Delhi,"Pusa, Delhi - IITM",PM10,21,28.63611,77.173332,09-07-2026 21:00:00
Delhi,"Pusa, Delhi - IITM",OZONE,38,28.63611,77.173332,09-07-2026 21:00:00
Delhi,"Cantonment Area, Delhi - DPCC",NO2,17,28.594169,77.1251,09-07-2026 21:00:00
Delhi,"Cantonment Area, Delhi - DPCC",CO,52,28.594169,77.1251,09-07-2026 21:00:00
Delhi,"Major Dhyan Chand National Stadium, Delhi - DPCC",PM2.5,14,28.611281,77.237738,09-07-2026 21:00:00
Delhi,"Major Dhyan Chand National Stadium, Delhi - DPCC",CO,38,28.611281,77.237738,09-07-2026 21:00:00
Delhi,"Sonia Vihar, Delhi - DPCC",PM2.5,,28.710508,77.249485,09-07-2026 21:00:00
Delhi,"Sonia Vihar, Delhi - DPCC",PM10,13,28.710508,77.249485,09-07-2026 21:00:00
Delhi,"Bawana, Delhi - DPCC",PM10,85,28.7762,77.051074,09-07-2026 21:00:00
Delhi,"Bawana, Delhi - DPCC",SO2,4,28.7762,77.051074,09-07-2026 21:00:00
Delhi,"Nehru Nagar, Delhi - DPCC",NO2,20,28.56789,77.250515,09-07-2026 21:00:00
Delhi,"Nehru Nagar, Delhi - DPCC",NH3,10,28.56789,77.250515,09-07-2026 21:00:00
Delhi,"Patparganj, Delhi - DPCC",CO,43,28.623763,77.287209,09-07-2026 21:00:00
Delhi,"Patparganj, Delhi - DPCC",OZONE,14,28.623763,77.287209,09-07-2026 21:00:00
Delhi,"IHBAS, Dilshad Garden, Delhi - CPCB",PM2.5,55,28.6811736,77.3025234,09-07-2026 21:00:00
Delhi,"Sri Aurobindo Marg, Delhi - DPCC",NO2,22,28.531346,77.190156,09-07-2026 21:00:00
Delhi,"Alipur, Delhi - DPCC",CO,25,28.815329,77.15301,09-07-2026 21:00:00
Delhi,"IMD Lodhi Road, Delhi - IITM",NH3,,28.5918245,77.2273074,09-07-2026 21:00:00
Delhi,"Burari Crossing, Delhi - IITM",PM10,,28.7256504,77.2011573,09-07-2026 21:00:00
Delhi,"Burari Crossing, Delhi - IITM",NH3,,28.7256504,77.2011573,09-07-2026 21:00:00
Delhi,"Narela, Delhi - DPCC",NO2,,28.822836,77.101981,09-07-2026 21:00:00
Delhi,"Narela, Delhi - DPCC",CO,39,28.822836,77.101981,09-07-2026 21:00:00
Delhi,"JNU, Delhi - DPCC",NH3,4,28.540721,77.168544,09-07-2026 21:00:00
Delhi,"CRRI Mathura Road, Delhi - IITM",NH3,,28.5512005,77.2735737,09-07-2026 21:00:00
Delhi,"CRRI Mathura Road, Delhi - IITM",OZONE,13,28.5512005,77.2735737,09-07-2026 21:00:00
Delhi,"Aya Nagar, Delhi - IITM",SO2,,28.4706914,77.1099364,09-07-2026 21:00:00
Delhi,"NSIT Dwarka, Delhi - CPCB",PM2.5,61,28.60909,77.0325413,09-07-2026 21:00:00
Delhi,"NSIT Dwarka, Delhi - CPCB",PM10,44,28.60909,77.0325413,09-07-2026 21:00:00
Delhi,"NSIT Dwarka, Delhi - CPCB",SO2,15,28.60909,77.0325413,09-07-2026 21:00:00
Delhi,"NSUT Jaffarpur, Delhi - DPCC",NO2,12,28.594004,76.909423,09-07-2026 21:00:00
Delhi,"NSUT Jaffarpur, Delhi - DPCC",OZONE,49,28.594004,76.909423,09-07-2026 21:00:00
Delhi,"Talkatora Garden, Delhi - DPCC",PM2.5,29,28.62181,77.1944633,09-07-2026 21:00:00
Ambala,"Patti Mehar, Ambala - HSPCB",NH3,7,30.379589,76.778328,09-07-2026 21:00:00
Ambala,"Patti Mehar, Ambala - HSPCB",CO,11,30.379589,76.778328,09-07-2026 21:00:00
Bahadurgarh,"Arya Nagar, Bahadurgarh - HSPCB",OZONE,25,28.6701,76.9254,09-07-2026 21:00:00
Ballabgarh,"Nathu Colony, Ballabgarh - HSPCB",PM2.5,90,28.3419248,77.319699,09-07-2026 21:00:00
Ballabgarh,"Nathu Colony, Ballabgarh - HSPCB",SO2,4,28.3419248,77.319699,09-07-2026 21:00:00
Bhiwani,"H.B. Colony, Bhiwani - HSPCB",PM2.5,65,28.806223,76.141105,09-07-2026 21:00:00
Bhiwani,"H.B. Colony, Bhiwani - HSPCB",PM10,65,28.806223,76.141105,09-07-2026 21:00:00
Faridabad,"New Industrial Town, Faridabad - HSPCB",PM2.5,83,28.39072,77.30059,09-07-2026 21:00:00
Faridabad,"New Industrial Town, Faridabad - HSPCB",NH3,11,28.39072,77.30059,09-07-2026 21:00:00
Faridabad,"Sector 30, Faridabad - HSPCB",PM10,,28.4417,77.3217,09-07-2026 21:00:00
Faridabad,"Sector 30, Faridabad - HSPCB",CO,60,28.4417,77.3217,09-07-2026 21:00:00
Faridabad,"Sector 11, Faridabad - HSPCB",CO,76,28.376058,77.315741,09-07-2026 21:00:00
Fatehabad,"Huda Sector, Fatehabad - HSPCB",NH3,14,29.503664,75.467934,09-07-2026 21:00:00
Delhi,"Talkatora Garden, Delhi - DPCC",NO2,16,28.62181,77.1944633,09-07-2026 21:00:00
Delhi,"Talkatora Garden, Delhi - DPCC",NH3,2,28.62181,77.1944633,09-07-2026 21:00:00
Delhi,"Talkatora Garden, Delhi - DPCC",OZONE,18,28.62181,77.1944633,09-07-2026 21:00:00
Delhi,"Commonwealth Sports Complex, Delhi - DPCC",PM2.5,28,28.615828,77.271992,09-07-2026 21:00:00
Delhi,"Commonwealth Sports Complex, Delhi - DPCC",OZONE,10,28.615828,77.271992,09-07-2026 21:00:00
Delhi,"Punjabi Bagh, Delhi - DPCC",PM2.5,,28.674045,77.131023,09-07-2026 21:00:00
Delhi,"Punjabi Bagh, Delhi - DPCC",PM10,,28.674045,77.131023,09-07-2026 21:00:00
Delhi,"Punjabi Bagh, Delhi - DPCC",NO2,20,28.674045,77.131023,09-07-2026 21:00:00
Delhi,"Punjabi Bagh, Delhi - DPCC",NH3,4,28.674045,77.131023,09-07-2026 21:00:00
Delhi,"Shadipur, Delhi - CPCB",SO2,11,28.6514781,77.1473105,09-07-2026 21:00:00
Delhi,"IGNOU_Maidan Garhi, Delhi - DPCC",NO2,14,28.493624,77.201159,09-07-2026 21:00:00
Delhi,"IGI Airport (T3), Delhi - IITM",OZONE,60,28.5627763,77.1180053,09-07-2026 21:00:00
Delhi,"Chandni Chowk, Delhi - IITM",PM2.5,,28.656756,77.227234,09-07-2026 21:00:00
Delhi,"Chandni Chowk, Delhi - IITM",PM10,,28.656756,77.227234,09-07-2026 21:00:00
Delhi,"Chandni Chowk, Delhi - IITM",NO2,12,28.656756,77.227234,09-07-2026 21:00:00
Ahmedabad,"SAC ISRO Satellite, Ahmedabad - IITM",PM2.5,63,23.023389,72.515201,09-07-2026 21:00:00
Ahmedabad,"SAC ISRO Satellite, Ahmedabad - IITM",OZONE,28,23.023389,72.515201,09-07-2026 21:00:00
Ahmedabad,"Maninagar, Ahmedabad - GPCB",NO2,34,23.002657,72.591912,09-07-2026 21:00:00
Ahmedabad,"Maninagar, Ahmedabad - GPCB",CO,62,23.002657,72.591912,09-07-2026 21:00:00
Ahmedabad,"Chandkheda, Ahmedabad - IITM",NO2,12,23.107969,72.574648,09-07-2026 21:00:00
Ahmedabad,"Chandkheda, Ahmedabad - IITM",NH3,4,23.107969,72.574648,09-07-2026 21:00:00
Ahmedabad,"Chandkheda, Ahmedabad - IITM",OZONE,8,23.107969,72.574648,09-07-2026 21:00:00
Ahmedabad,"Raikhad, Ahmedabad - IITM",PM2.5,33,23.020509,72.579261,09-07-2026 21:00:00
Ahmedabad,"Raikhad, Ahmedabad - IITM",NO2,12,23.020509,72.579261,09-07-2026 21:00:00
Ahmedabad,"Raikhad, Ahmedabad - IITM",NH3,10,23.020509,72.579261,09-07-2026 21:00:00
Ahmedabad,"SAC ISRO Bopal, Ahmedabad - IITM",PM2.5,61,23.041137,72.456691,09-07-2026 21:00:00
Ahmedabad,"SAC ISRO Bopal, Ahmedabad - IITM",NH3,2,23.041137,72.456691,09-07-2026 21:00:00
Ahmedabad,"SAC ISRO Bopal, Ahmedabad - IITM",OZONE,24,23.041137,72.456691,09-07-2026 21:00:00
Ahmedabad,"Gyaspur, Ahmedabad - IITM",NH3,24,22.977134,72.553024,09-07-2026 21:00:00
Delhi,"Anand Vihar, Delhi - DPCC",PM2.5,54,28.647622,77.315809,09-07-2026 21:00:00
Delhi,"Ashok Vihar, Delhi - DPCC",NH3,10,28.695381,77.181665,09-07-2026 21:00:00
Delhi,"Ashok Vihar, Delhi - DPCC",OZONE,6,28.695381,77.181665,09-07-2026 21:00:00
Delhi,"Dwarka-Sector 8, Delhi - DPCC",PM10,,28.5710274,77.0719006,09-07-2026 21:00:00
Delhi,"Dwarka-Sector 8, Delhi - DPCC",NH3,10,28.5710274,77.0719006,09-07-2026 21:00:00
Delhi,"Dwarka-Sector 8, Delhi - DPCC",SO2,16,28.5710274,77.0719006,09-07-2026 21:00:00
Delhi,"IIT Delhi, Delhi - IITM",PM2.5,18,28.54246,77.191651,09-07-2026 21:00:00
Delhi,"IIT Delhi, Delhi - IITM",NH3,,28.54246,77.191651,09-07-2026 21:00:00
Delhi,"ITO, Delhi - CPCB",PM2.5,25,28.628624,77.24106,09-07-2026 21:00:00
Delhi,"ITO, Delhi - CPCB",PM10,22,28.628624,77.24106,09-07-2026 21:00:00
Delhi,"R K Puram, Delhi - DPCC",PM10,28,28.563262,77.186937,09-07-2026 21:00:00
Delhi,"North Campus, DU, Delhi - IITM",NH3,,28.6573814,77.1585447,09-07-2026 21:00:00
Gurugram,"NISE Gwal Pahari, Gurugram - IITM",NO2,16,28.422681,77.148944,09-07-2026 21:00:00
Gurugram,"Vikas Sadan, Gurugram - HSPCB",NH3,,28.4501238,77.0263051,09-07-2026 21:00:00
Gurugram,"Vikas Sadan, Gurugram - HSPCB",CO,33,28.4501238,77.0263051,09-07-2026 21:00:00
Gurugram,"Vikas Sadan, Gurugram - HSPCB",OZONE,3,28.4501238,77.0263051,09-07-2026 21:00:00
Gurugram,"Teri Gram, Gurugram - HSPCB",SO2,12,28.4275,77.1465,09-07-2026 21:00:00
Gurugram,"Teri Gram, Gurugram - HSPCB",CO,19,28.4275,77.1465,09-07-2026 21:00:00
Hisar,"Urban Estate-II, Hisar - HSPCB",NO2,,29.14056,75.744941,09-07-2026 21:00:00
Hisar,"Urban Estate-II, Hisar - HSPCB",CO,54,29.14056,75.744941,09-07-2026 21:00:00
Jind,"Police Lines, Jind - HSPCB",PM2.5,41,29.307814,76.337619,09-07-2026 21:00:00
Delhi,"Rohini, Delhi - DPCC",PM2.5,20,28.732528,77.11992,09-07-2026 21:00:00
Delhi,"Rohini, Delhi - DPCC",PM10,28,28.732528,77.11992,09-07-2026 21:00:00
Delhi,"Rohini, Delhi - DPCC",OZONE,4,28.732528,77.11992,09-07-2026 21:00:00
Delhi,"Vivek Vihar, Delhi - DPCC",PM10,25,28.672342,77.31526,09-07-2026 21:00:00
Delhi,"Jahangirpuri, Delhi - DPCC",PM10,104,28.73282,77.170633,09-07-2026 21:00:00
Delhi,"Jahangirpuri, Delhi - DPCC",NO2,18,28.73282,77.170633,09-07-2026 21:00:00
Delhi,"Mundka, Delhi - DPCC",SO2,8,28.684678,77.076574,09-07-2026 21:00:00
Delhi,"Mundka, Delhi - DPCC",OZONE,5,28.684678,77.076574,09-07-2026 21:00:00
Delhi,"Wazirpur, Delhi - DPCC",SO2,9,28.699793,77.165453,09-07-2026 21:00:00
Delhi,"Wazirpur, Delhi - DPCC",OZONE,18,28.699793,77.165453,09-07-2026 21:00:00
Kaithal,"Rishi Nagar, Kaithal - HSPCB",PM2.5,53,29.8006,76.4155,09-07-2026 21:00:00
Karnal,"Sector-12, Karnal - HSPCB",PM2.5,51,29.6953,77.0027,09-07-2026 21:00:00
Karnal,"Sector-12, Karnal - HSPCB",NO2,14,29.6953,77.0027,09-07-2026 21:00:00
Karnal,"Sector-12, Karnal - HSPCB",CO,50,29.6953,77.0027,09-07-2026 21:00:00
Kurukshetra,"Sector-7, Kurukshetra - HSPCB",NH3,15,29.966942,76.875879,09-07-2026 21:00:00
Mandikhera,"General Hospital, Mandikhera(Nuh) - HSPCB",CO,33,27.9002,76.9938,09-07-2026 21:00:00
Manesar,"Sector-2 IMT, Manesar - HSPCB",PM2.5,79,28.360699,76.93609,09-07-2026 21:00:00
Manesar,"Sector-2 IMT, Manesar - HSPCB",PM10,79,28.360699,76.93609,09-07-2026 21:00:00
Manesar,"Sector-2 IMT, Manesar - HSPCB",SO2,8,28.360699,76.93609,09-07-2026 21:00:00
Narnaul,"Shastri Nagar, Narnaul - HSPCB",NH3,8,28.060249,76.113115,09-07-2026 21:00:00
Palwal,"Shyam Nagar, Palwal - HSPCB",PM2.5,38,28.1485564,77.3320667,09-07-2026 21:00:00
Palwal,"Shyam Nagar, Palwal - HSPCB",CO,40,28.1485564,77.3320667,09-07-2026 21:00:00
Palwal,"Shyam Nagar, Palwal - HSPCB",OZONE,16,28.1485564,77.3320667,09-07-2026 21:00:00
Panchgaon,"Amity University, Panchgaon - IITM",NH3,18,28.3153,76.9143,09-07-2026 21:00:00
Panchgaon,"Amity University, Panchgaon - IITM",SO2,7,28.3153,76.9143,09-07-2026 21:00:00
Panchkula,"Sector-6, Panchkula - HSPCB",PM10,,30.7057778,76.8531805555555,09-07-2026 21:00:00
Srinagar,"Rajbagh, Srinagar - JKPCC",SO2,3,34.066206,74.81982,09-07-2026 21:00:00
Dhanbad,"Sardar Patel Nagar, Dhanbad - JSPCB",PM10,74,23.80569,86.44268,09-07-2026 21:00:00
Dhanbad,"Sardar Patel Nagar, Dhanbad - JSPCB",NH3,,23.80569,86.44268,09-07-2026 21:00:00
Jorapokhar,"Tata Stadium, Jorapokhar - JSPCB",NO2,8,23.707909,86.41467,09-07-2026 21:00:00
Bagalkot,"Vidayagiri, Bagalkot - KSPCB",NH3,1,16.172806,75.659694,09-07-2026 21:00:00
Bengaluru,"Silk Board, Bengaluru - KSPCB",NH3,3,12.917348,77.622813,09-07-2026 21:00:00
Bengaluru,"BTM Layout, Bengaluru - CPCB",PM2.5,28,12.9135218,77.5950804,09-07-2026 21:00:00
Bengaluru,"BTM Layout, Bengaluru - CPCB",PM10,49,12.9135218,77.5950804,09-07-2026 21:00:00
Bengaluru,"BTM Layout, Bengaluru - CPCB",NH3,4,12.9135218,77.5950804,09-07-2026 21:00:00
Bengaluru,"Hombegowda Nagar, Bengaluru - KSPCB",NH3,1,12.938539,77.5901,09-07-2026 21:00:00
Bengaluru,"Jayanagar 5th Block, Bengaluru - KSPCB",NH3,1,12.920984,77.584908,09-07-2026 21:00:00
Yadgir,"Collector Office, Yadgir - KSPCB",NO2,,16.7602,77.1428,09-07-2026 21:00:00
Kannur,"Thavakkara, Kannur - Kerala PCB",PM2.5,50,11.875,75.3732,09-07-2026 21:00:00
Kannur,"Thavakkara, Kannur - Kerala PCB",NH3,1,11.875,75.3732,09-07-2026 21:00:00
Kannur,"Thavakkara, Kannur - Kerala PCB",CO,11,11.875,75.3732,09-07-2026 21:00:00
Kollam,"Polayathode, Kollam - Kerala PCB",SO2,3,8.8787,76.6073,09-07-2026 21:00:00
Thiruvananthapuram,"Kariavattom, Thiruvananthapuram - Kerala PCB",PM2.5,42,8.5637,76.8865,09-07-2026 21:00:00
Thiruvananthapuram,"Kariavattom, Thiruvananthapuram - Kerala PCB",NH3,0,8.5637,76.8865,09-07-2026 21:00:00
Thiruvananthapuram,"Kariavattom, Thiruvananthapuram - Kerala PCB",OZONE,31,8.5637,76.8865,09-07-2026 21:00:00
Thrissur,"Corporation Ground, Thrissur - Kerala PCB",PM2.5,,10.5324,76.2159,09-07-2026 21:00:00
Thrissur,"Corporation Ground, Thrissur - Kerala PCB",NH3,,10.5324,76.2159,09-07-2026 21:00:00
Bhopal,"Paryavaran Parisar, Bhopal - MPPCB",PM2.5,31,23.210494,77.425409,09-07-2026 21:00:00
Bhopal,"Paryavaran Parisar, Bhopal - MPPCB",PM10,59,23.210494,77.425409,09-07-2026 21:00:00
Panipat,"Sector-18, Panipat - HSPCB",PM10,62,29.432304,76.972765,09-07-2026 21:00:00
Panipat,"Sector-18, Panipat - HSPCB",NO2,7,29.432304,76.972765,09-07-2026 21:00:00
Panipat,"Sector-18, Panipat - HSPCB",CO,39,29.432304,76.972765,09-07-2026 21:00:00
Sonipat,"Murthal, Sonipat - HSPCB",PM2.5,,29.0272,77.0621,09-07-2026 21:00:00
Sonipat,"Murthal, Sonipat - HSPCB",OZONE,70,29.0272,77.0621,09-07-2026 21:00:00
Yamuna Nagar,"Gobind Pura, Yamuna Nagar - HSPCB",PM2.5,,30.1480566,77.2893471,09-07-2026 21:00:00
Baddi,"HIMUDA Complex Phase-1, Baddi - HPPCB",PM2.5,56,30.943887,76.801991,09-07-2026 21:00:00
Baddi,"HIMUDA Complex Phase-1, Baddi - HPPCB",NH3,8,30.943887,76.801991,09-07-2026 21:00:00
Baddi,"HIMUDA Complex Phase-1, Baddi - HPPCB",CO,52,30.943887,76.801991,09-07-2026 21:00:00
Pampore,"Khrew, Pampore - JKPCC",PM10,37,34.031606,75.009712,09-07-2026 21:00:00
Pampore,"Khrew, Pampore - JKPCC",NO2,,34.031606,75.009712,09-07-2026 21:00:00
Pampore,"Khrew, Pampore - JKPCC",SO2,0,34.031606,75.009712,09-07-2026 21:00:00
Kalaburagi,"Mahatma Basaveswar Colony, Kalaburgi - KSPCB",PM10,33,17.336318,76.847397,09-07-2026 21:00:00
Karwar,"KHB Colony, Karwar - KSPCB",PM2.5,46,14.816666,74.141003,09-07-2026 21:00:00
Karwar,"KHB Colony, Karwar - KSPCB",SO2,19,14.816666,74.141003,09-07-2026 21:00:00
Koppal,"Diwator Nagar, Koppal - KSPCB",PM2.5,,15.34763,76.181767,09-07-2026 21:00:00
Koppal,"Diwator Nagar, Koppal - KSPCB",PM10,25,15.34763,76.181767,09-07-2026 21:00:00
Koppal,"Diwator Nagar, Koppal - KSPCB",NO2,31,15.34763,76.181767,09-07-2026 21:00:00
Koppal,"Diwator Nagar, Koppal - KSPCB",CO,19,15.34763,76.181767,09-07-2026 21:00:00
Mangalore,"Kadri, Mangalore - KSPCB",NO2,3,12.88925,74.853,09-07-2026 21:00:00
Mangalore,"Kadri, Mangalore - KSPCB",SO2,,12.88925,74.853,09-07-2026 21:00:00
Bengaluru,"Kasturi Nagar, Bengaluru - KSPCB",SO2,16,13.003872,77.664217,09-07-2026 21:00:00
Bengaluru,"Kasturi Nagar, Bengaluru - KSPCB",OZONE,26,13.003872,77.664217,09-07-2026 21:00:00
Bengaluru,"Sanegurava Halli, Bengaluru - KSPCB",PM2.5,,12.990328,77.5431385,09-07-2026 21:00:00
Bengaluru,"Sanegurava Halli, Bengaluru - KSPCB",NH3,,12.990328,77.5431385,09-07-2026 21:00:00
Bengaluru,"Jigani, Bengaluru - KSPCB",OZONE,29,12.7816279,77.6299145,09-07-2026 21:00:00
Bengaluru,"Bapuji Nagar, Bengaluru - KSPCB",NO2,26,12.951913,77.539784,09-07-2026 21:00:00
Bengaluru,"Bapuji Nagar, Bengaluru - KSPCB",CO,34,12.951913,77.539784,09-07-2026 21:00:00
Chamarajanagar,"Urban, Chamarajanagar - KSPCB",PM2.5,32,11.55358,76.55521,09-07-2026 21:00:00
Chamarajanagar,"Urban, Chamarajanagar - KSPCB",NH3,2,11.55358,76.55521,09-07-2026 21:00:00
Mysuru,"Hebbal 1st Stage, Mysuru - KSPCB",PM2.5,21,12.21041,76.37376,09-07-2026 21:00:00
Ramanagara,"Vijay Nagar, Ramanagara - KSPCB",OZONE,31,12.733409,77.298051,09-07-2026 21:00:00
Shivamogga,"Vinoba Nagara, Shivamogga - KSPCB",SO2,4,13.94,75.555917,09-07-2026 21:00:00
Vijayapura,"Ibrahimpur, Vijayapura - KSPCB",NO2,11,16.802639,75.722694,09-07-2026 21:00:00
Vijayapura,"Ibrahimpur, Vijayapura - KSPCB",CO,23,16.802639,75.722694,09-07-2026 21:00:00
Bhopal,"Idgah Hills, Bhopal - MPPCB",NO2,17,23.264759,77.381568,09-07-2026 21:00:00
Gwalior,"Maharaj Bada, Gwalior - MPPCB",NO2,39,26.200388,78.147714,09-07-2026 21:00:00
Gwalior,"Deen Dayal Nagar, Gwalior - MPPCB",PM10,91,26.259242,78.216432,09-07-2026 21:00:00
Gwalior,"Deen Dayal Nagar, Gwalior - MPPCB",NH3,8,26.259242,78.216432,09-07-2026 21:00:00
Gwalior,"City Center, Gwalior - MPPCB",NO2,17,26.203442,78.193251,09-07-2026 21:00:00
Indore,"Regional Park, Indore - IMC",SO2,35,22.678,75.8559,09-07-2026 21:00:00
Indore,"Maguda Nagar, Indore - IMC",SO2,19,22.7524,75.8872,09-07-2026 21:00:00
Jabalpur,"Marhatal, Jabalpur - MPPCB",NO2,23,23.168606,79.932247,09-07-2026 21:00:00
Jabalpur,"Marhatal, Jabalpur - MPPCB",NH3,1,23.168606,79.932247,09-07-2026 21:00:00
Jabalpur,"Marhatal, Jabalpur - MPPCB",SO2,9,23.168606,79.932247,09-07-2026 21:00:00
Mumbai,"Bandra Kurla Complex, Mumbai - MPCB",PM10,52,19.065931,72.862131,09-07-2026 21:00:00
Mumbai,"Bandra Kurla Complex, Mumbai - MPCB",SO2,3,19.065931,72.862131,09-07-2026 21:00:00
Mumbai,"Bandra Kurla Complex, Mumbai - MPCB",CO,26,19.065931,72.862131,09-07-2026 21:00:00
Mumbai,"Shivaji Nagar, Mumbai - BMC",NO2,14,19.060498,72.923356,09-07-2026 21:00:00
Mumbai,"Malad West, Mumbai - IITM",CO,49,19.19709,72.82204,09-07-2026 21:00:00
Mumbai,"Mazgaon, Mumbai - IITM",CO,26,18.96702,72.84214,09-07-2026 21:00:00
Mumbai,"Chembur, Mumbai - MPCB",NH3,12,19.0364585,72.8954371,09-07-2026 21:00:00
Mumbai,"Chembur, Mumbai - MPCB",OZONE,10,19.0364585,72.8954371,09-07-2026 21:00:00
Mumbai,"Deonar, Mumbai - IITM",PM2.5,27,19.04946,72.923,09-07-2026 21:00:00
Mumbai,"Chakala-Andheri East, Mumbai - IITM",PM2.5,24,19.11074,72.86084,09-07-2026 21:00:00
Mumbai,"Chakala-Andheri East, Mumbai - IITM",PM10,58,19.11074,72.86084,09-07-2026 21:00:00
Mumbai,"Chakala-Andheri East, Mumbai - IITM",NH3,17,19.11074,72.86084,09-07-2026 21:00:00
Mumbai,"Kandivali West, Mumbai - BMC",OZONE,11,19.215859,72.831718,09-07-2026 21:00:00
Nagpur,"Mahal, Nagpur - MPCB",PM2.5,34,21.14472,79.107595,09-07-2026 21:00:00
Nagpur,"Mahal, Nagpur - MPCB",PM10,65,21.14472,79.107595,09-07-2026 21:00:00
Nagpur,"Ambazari, Nagpur - MPCB",PM2.5,28,21.121801,79.04952,09-07-2026 21:00:00
Nagpur,"Ambazari, Nagpur - MPCB",PM10,41,21.121801,79.04952,09-07-2026 21:00:00
Nagpur,"Ambazari, Nagpur - MPCB",SO2,5,21.121801,79.04952,09-07-2026 21:00:00
Akola,"Ramdaspeth, Akola - MPCB",SO2,5,20.719516,77.000253,09-07-2026 21:00:00
Amravati,"Shri Shivaji Science College, Amravati - MPCB",PM10,49,20.939198,77.765701,09-07-2026 21:00:00
Amravati,"Shri Shivaji Science College, Amravati - MPCB",SO2,4,20.939198,77.765701,09-07-2026 21:00:00
Amravati,"Shivneri Colony, Amravati - MPCB",PM10,53,20.9402359,77.7895248,09-07-2026 21:00:00
Amravati,"Shivneri Colony, Amravati - MPCB",SO2,10,20.9402359,77.7895248,09-07-2026 21:00:00
Aurangabad,"More Chowk Waluj, Aurangabad - MPCB",PM2.5,50,19.8389439,75.244448,09-07-2026 21:00:00
Aurangabad,"More Chowk Waluj, Aurangabad - MPCB",PM10,50,19.8389439,75.244448,09-07-2026 21:00:00
Aurangabad,"More Chowk Waluj, Aurangabad - MPCB",OZONE,19,19.8389439,75.244448,09-07-2026 21:00:00
Aurangabad,"MIDC Chilkalthana, Aurangabad - MPCB",SO2,7,19.87562,75.38731,09-07-2026 21:00:00
Aurangabad,"MIDC Chilkalthana, Aurangabad - MPCB",CO,26,19.87562,75.38731,09-07-2026 21:00:00
Aurangabad,"Rachnakar Colony, Aurangabad - MPCB",NO2,20,19.863756,75.321188,09-07-2026 21:00:00
Aurangabad,"Rachnakar Colony, Aurangabad - MPCB",CO,30,19.863756,75.321188,09-07-2026 21:00:00
Beed,"Bir, Beed - MPCB",PM2.5,41,18.988474,75.753873,09-07-2026 21:00:00
Beed,"Bir, Beed - MPCB",NO2,12,18.988474,75.753873,09-07-2026 21:00:00
Beed,"Bir, Beed - MPCB",NH3,2,18.988474,75.753873,09-07-2026 21:00:00
Belapur,"CBD Belapur, Belapur - MPCB",NH3,4,19.0243902,73.0406721,09-07-2026 21:00:00
Navi Mumbai,"Tondare-Taloja, Navi Mumbai - MPCB",PM10,64,19.063,73.1209,09-07-2026 21:00:00
Navi Mumbai,"Tondare-Taloja, Navi Mumbai - MPCB",SO2,2,19.063,73.1209,09-07-2026 21:00:00
Navi Mumbai,"Kopripada-Vashi, Navi Mumbai - MPCB",NH3,11,19.090337,73.014232,09-07-2026 21:00:00
Parbhani,"Masoom Colony, Parbhani - MPCB",PM10,50,19.265594,76.761463,09-07-2026 21:00:00
Pimpri-Chinchwad,"Savta Mali Nagar, Pimpri-Chinchwad - IITM",NH3,,18.614767,73.799516,09-07-2026 21:00:00
Pimpri-Chinchwad,"Bhosari, Pune - IITM",PM2.5,32,18.640051,73.848956,09-07-2026 21:00:00
Pimpri-Chinchwad,"Bhosari, Pune - IITM",CO,30,18.640051,73.848956,09-07-2026 21:00:00
Pimpri-Chinchwad,"Gavalinagar, Pimpri Chinchwad - MPCB",NO2,7,18.63673,73.82487,09-07-2026 21:00:00
Pimpri-Chinchwad,"Transport Nagar-Nigdi, Pune - IITM",NO2,16,18.664282,73.763966,09-07-2026 21:00:00
Pimpri-Chinchwad,"Transport Nagar-Nigdi, Pune - IITM",SO2,,18.664282,73.763966,09-07-2026 21:00:00
Pimpri-Chinchwad,"Thergaon, Pimpri Chinchwad - MPCB",CO,52,18.616318,73.765797,09-07-2026 21:00:00
Pimpri-Chinchwad,"Thergaon, Pimpri Chinchwad - MPCB",OZONE,16,18.616318,73.765797,09-07-2026 21:00:00
Pimpri-Chinchwad,"Park Street Wakad, Pimpri Chinchwad - MPCB",NH3,,18.59051,73.77946,09-07-2026 21:00:00
Maihar,"Sahilara, Maihar - KJS Cements",NO2,59,24.2613009,80.7231783,09-07-2026 21:00:00
Mandideep,"Sector-D Industrial Area, Mandideep - MPPCB",PM10,96,23.10844,77.511428,09-07-2026 21:00:00
Ratlam,"Shasthri Nagar, Ratlam - IPCA Lab",PM2.5,39,23.331731,75.045981,09-07-2026 21:00:00
Ratlam,"Shasthri Nagar, Ratlam - IPCA Lab",NH3,,23.331731,75.045981,09-07-2026 21:00:00
Ratlam,"Shasthri Nagar, Ratlam - IPCA Lab",SO2,23,23.331731,75.045981,09-07-2026 21:00:00
Ratlam,"Shasthri Nagar, Ratlam - IPCA Lab",CO,,23.331731,75.045981,09-07-2026 21:00:00
Sagar,"Civil Lines, Sagar - MPPCB",NH3,4,23.838586,78.759431,09-07-2026 21:00:00
Satna,"Bandhavgar Colony, Satna - Birla Cement",PM2.5,50,24.58434363,80.8549414,09-07-2026 21:00:00
Satna,"Bandhavgar Colony, Satna - Birla Cement",CO,17,24.58434363,80.8549414,09-07-2026 21:00:00
Ujjain,"Mahashweta Nagar, Ujjain - MPPCB",PM10,58,23.1633321,75.800225,09-07-2026 21:00:00
Ujjain,"Mahashweta Nagar, Ujjain - MPPCB",OZONE,55,23.1633321,75.800225,09-07-2026 21:00:00
Ahmednagar,"Tarakpur, Ahmednagar - MPCB",OZONE,30,19.10122,74.73339,09-07-2026 21:00:00
Nagpur,"Ram Nagar, Nagpur - MPCB",SO2,4,21.143383,79.048912,09-07-2026 21:00:00
Nagpur,"Opp GPO Civil Lines, Nagpur - MPCB",PM2.5,31,21.152875,79.0517531,09-07-2026 21:00:00
Nagpur,"Opp GPO Civil Lines, Nagpur - MPCB",SO2,4,21.152875,79.0517531,09-07-2026 21:00:00
Nashik,"Gangapur Road, Nashik - MPCB",PM2.5,45,20.0073285,73.7762427,09-07-2026 21:00:00
Nashik,"Pandav Nagari, Nashik - MPCB",NO2,4,19.9591346,73.7788008,09-07-2026 21:00:00
Nashik,"Pandav Nagari, Nashik - MPCB",CO,14,19.9591346,73.7788008,09-07-2026 21:00:00
Nashik,"Hirawadi, Nashik - MPCB",PM2.5,,20.021503,73.813844,09-07-2026 21:00:00
Navi Mumbai,"Nerul, Navi Mumbai - MPCB",NO2,9,19.008751,73.01662,09-07-2026 21:00:00
Navi Mumbai,"Nerul, Navi Mumbai - MPCB",NH3,1,19.008751,73.01662,09-07-2026 21:00:00
Navi Mumbai,"Nerul, Navi Mumbai - MPCB",SO2,,19.008751,73.01662,09-07-2026 21:00:00
Navi Mumbai,"Nerul, Navi Mumbai - MPCB",CO,,19.008751,73.01662,09-07-2026 21:00:00
Navi Mumbai,"Sanpada, Navi Mumbai - MPCB",PM10,46,19.0575752,73.0151367,09-07-2026 21:00:00
Navi Mumbai,"Sanpada, Navi Mumbai - MPCB",NH3,3,19.0575752,73.0151367,09-07-2026 21:00:00
Navi Mumbai,"Mahape, Navi Mumbai - MPCB",PM10,71,19.1135051,73.008978,09-07-2026 21:00:00
Pune,"Revenue Colony-Shivajinagar, Pune - IITM",PM2.5,18,18.530085,73.849598,09-07-2026 21:00:00
Pune,"Revenue Colony-Shivajinagar, Pune - IITM",SO2,15,18.530085,73.849598,09-07-2026 21:00:00
Pune,"Dhankawadi, Pune - IITM",PM2.5,28,18.459883,73.852193,09-07-2026 21:00:00
Pune,"Dhankawadi, Pune - IITM",SO2,,18.459883,73.852193,09-07-2026 21:00:00
Pune,"Hadapsar, Pune - IITM",NO2,,18.501793,73.927532,09-07-2026 21:00:00
Pune,"Mhada Colony, Pune - IITM",PM10,60,18.57304,73.927715,09-07-2026 21:00:00
Pune,"Katraj Dairy, Pune - MPCB",NH3,,18.45445,73.854155,09-07-2026 21:00:00
Pune,"Panchawati_Pashan, Pune - IITM",PM10,59,18.536457,73.805454,09-07-2026 21:00:00
Pune,"Savitribai Phule Pune University, Pune - MPCB",PM2.5,19,18.547056,73.826908,09-07-2026 21:00:00
Pune,"Savitribai Phule Pune University, Pune - MPCB",NH3,1,18.547056,73.826908,09-07-2026 21:00:00
Pune,"Savitribai Phule Pune University, Pune - MPCB",CO,30,18.547056,73.826908,09-07-2026 21:00:00
Latur,"Sawe Wadi, Latur - MPCB",PM2.5,24,18.39963,76.57452,09-07-2026 21:00:00
Latur,"Sawe Wadi, Latur - MPCB",NO2,13,18.39963,76.57452,09-07-2026 21:00:00
Mahad,"Kamble Tarf Birwadi, Mahad - MPCB",NH3,5,18.1023399,73.4783687,09-07-2026 21:00:00
Mahad,"Kamble Tarf Birwadi, Mahad - MPCB",CO,23,18.1023399,73.4783687,09-07-2026 21:00:00
Mahad,"Kamble Tarf Birwadi, Mahad - MPCB",OZONE,31,18.1023399,73.4783687,09-07-2026 21:00:00
Mumbai,"Sewri, Mumbai - BMC",NO2,,19.000084,72.85673,09-07-2026 21:00:00
Mumbai,"Chhatrapati Shivaji Intl. Airport (T2), Mumbai - MPCB",SO2,7,19.10078,72.87462,09-07-2026 21:00:00
Mumbai,"Navy Nagar-Colaba, Mumbai - IITM",PM10,91,18.897756,72.81332,09-07-2026 21:00:00
Mumbai,"Navy Nagar-Colaba, Mumbai - IITM",NO2,97,18.897756,72.81332,09-07-2026 21:00:00
Mumbai,"Ghatkopar, Mumbai - BMC",PM2.5,23,19.083694,72.920967,09-07-2026 21:00:00
Mumbai,"Kurla, Mumbai - MPCB",SO2,,19.0863,72.8888,09-07-2026 21:00:00
Mumbai,"Kurla, Mumbai - MPCB",OZONE,28,19.0863,72.8888,09-07-2026 21:00:00
Mumbai,"Siddharth Nagar-Worli, Mumbai - IITM",PM10,96,19.000083,72.813993,09-07-2026 21:00:00
Mumbai,"Khindipada-Bhandup West, Mumbai - IITM",PM2.5,27,19.1653323,72.922099,09-07-2026 21:00:00
Mumbai,"Khindipada-Bhandup West, Mumbai - IITM",NH3,,19.1653323,72.922099,09-07-2026 21:00:00
Mumbai,"Worli, Mumbai - MPCB",PM10,89,18.9936162,72.8128113,09-07-2026 21:00:00
Mumbai,"Worli, Mumbai - MPCB",SO2,3,18.9936162,72.8128113,09-07-2026 21:00:00
Mumbai,"Worli, Mumbai - MPCB",CO,28,18.9936162,72.8128113,09-07-2026 21:00:00
Mumbai,"Worli, Mumbai - MPCB",OZONE,5,18.9936162,72.8128113,09-07-2026 21:00:00
Mumbai,"Bandra Kurla Complex, Mumbai - MPCB",PM2.5,33,19.065931,72.862131,09-07-2026 21:00:00
Boisar,"Khaira, Boisar - MPCB",PM2.5,47,19.786089,72.757971,09-07-2026 21:00:00
Chandrapur,"MIDC Khutala, Chandrapur - MPCB",CO,39,19.9775302,79.2337086,09-07-2026 21:00:00
Chandrapur,"MIDC Khutala, Chandrapur - MPCB",OZONE,23,19.9775302,79.2337086,09-07-2026 21:00:00
Dhule,"Deopur, Dhule - MPCB",SO2,2,20.918946,74.776388,09-07-2026 21:00:00
Jalgaon,"Prabhat Colony, Jalgaon - MPCB",NO2,14,21.001264,75.565602,09-07-2026 21:00:00
Jalgaon,"Prabhat Colony, Jalgaon - MPCB",CO,42,21.001264,75.565602,09-07-2026 21:00:00
Kolhapur,"Sinchan Bhavan, Kolhapur - MPCB",PM2.5,24,16.7143745,74.2426398,09-07-2026 21:00:00
Bhubaneswar,"Patia, Bhubaneswar - OSPCB",SO2,8,20.34652,85.8163,09-07-2026 21:00:00
Bileipada,"Tata Township, Bileipada - OSPCB",PM2.5,48,22.06156703,85.47409613,09-07-2026 21:00:00
Bileipada,"Tata Township, Bileipada - OSPCB",PM10,94,22.06156703,85.47409613,09-07-2026 21:00:00
Bileipada,"Tata Township, Bileipada - OSPCB",CO,23,22.06156703,85.47409613,09-07-2026 21:00:00
Byasanagar,"Ferro Chrome Colony, Byasanagar - OSPCB",NH3,1,20.94185,86.1151,09-07-2026 21:00:00
Byasanagar,"Ferro Chrome Colony, Byasanagar - OSPCB",OZONE,37,20.94185,86.1151,09-07-2026 21:00:00
Cuttack,"CDA Area, Cuttack - OSPCB",PM10,90,20.48891,85.84768,09-07-2026 21:00:00
Cuttack,"CDA Area, Cuttack - OSPCB",OZONE,48,20.48891,85.84768,09-07-2026 21:00:00
Keonjhar,"Jagamohanpur, Keonjhar - OSPCB",PM2.5,27,21.6439,85.599355,09-07-2026 21:00:00
Keonjhar,"Jagamohanpur, Keonjhar - OSPCB",PM10,49,21.6439,85.599355,09-07-2026 21:00:00
Keonjhar,"Jagamohanpur, Keonjhar - OSPCB",NO2,13,21.6439,85.599355,09-07-2026 21:00:00
Rairangpur,"Divisional Forest Office, Rairangpur - OSPCB",PM2.5,15,22.265816,86.174829,09-07-2026 21:00:00
Rairangpur,"Divisional Forest Office, Rairangpur - OSPCB",PM10,51,22.265816,86.174829,09-07-2026 21:00:00
Rairangpur,"Divisional Forest Office, Rairangpur - OSPCB",NO2,6,22.265816,86.174829,09-07-2026 21:00:00
Rairangpur,"Divisional Forest Office, Rairangpur - OSPCB",OZONE,8,22.265816,86.174829,09-07-2026 21:00:00
Rourkela,"Raghunathpali, Rourkela - OSPCB",PM10,73,22.220833,84.809444,09-07-2026 21:00:00
Rourkela,"Raghunathpali, Rourkela - OSPCB",NO2,15,22.220833,84.809444,09-07-2026 21:00:00
Rourkela,"Fertilizer Township, Rourkela - OSPCB",CO,16,22.18972222,84.86277778,09-07-2026 21:00:00
Suakati,"OMC Colony, Suakati - OSPCB",NO2,18,21.606865,85.510538,09-07-2026 21:00:00
Suakati,"OMC Colony, Suakati - OSPCB",SO2,4,21.606865,85.510538,09-07-2026 21:00:00
Talcher,"Talcher Coalfields,Talcher - OSPCB",PM2.5,,20.9360711,85.1707021,09-07-2026 21:00:00
Talcher,"Talcher Coalfields,Talcher - OSPCB",PM10,58,20.9360711,85.1707021,09-07-2026 21:00:00
Talcher,"Talcher Coalfields,Talcher - OSPCB",CO,34,20.9360711,85.1707021,09-07-2026 21:00:00
Tensa,"Barsua Iron Ore Mines, Tensa - OSPCB",NO2,,21.869985,85.167016,09-07-2026 21:00:00
Puducherry,"Jawahar Nagar, Puducherry - PPCC",NO2,12,11.9309,79.8027,09-07-2026 21:00:00
Puducherry,"Jawahar Nagar, Puducherry - PPCC",SO2,8,11.9309,79.8027,09-07-2026 21:00:00
Amritsar,"Golden Temple, Amritsar - PPCB",PM10,109,31.62,74.876512,09-07-2026 21:00:00
Bathinda,"Hardev Nagar, Bathinda - PPCB",NH3,,30.233011,74.907758,09-07-2026 21:00:00
Khanna,"Kalal Majra, Khanna - PPCB",PM10,67,30.736056,76.209694,09-07-2026 21:00:00
Patiala,"Model Town, Patiala - PPCB",PM10,44,30.349388,76.366642,09-07-2026 21:00:00
Patiala,"Model Town, Patiala - PPCB",SO2,10,30.349388,76.366642,09-07-2026 21:00:00
Patiala,"Model Town, Patiala - PPCB",CO,10,30.349388,76.366642,09-07-2026 21:00:00
Rupnagar,"Ratanpura, Rupnagar - Ambuja Cements",NH3,,31.0325454,76.5623046,09-07-2026 21:00:00
Shillong,"Lumpyngngad, Shillong - Meghalaya PCB",OZONE,24,25.5586,91.8985,09-07-2026 21:00:00
Aizawl,"Sikulpuikawn, Aizawl - Mizoram PCB",NH3,0,23.7176342,92.7192841,09-07-2026 21:00:00
Kohima,"PWD Junction, Kohima - NPCB",CO,5,25.6635413,94.0989878,09-07-2026 21:00:00
Angul,"Hakimapada, Angul - OSPCB",PM10,89,20.832874,85.104082,09-07-2026 21:00:00
Balasore,"Kalidaspur, Balasore - OSPCB",NH3,5,21.51161,86.89088,09-07-2026 21:00:00
Balasore,"Kalidaspur, Balasore - OSPCB",CO,44,21.51161,86.89088,09-07-2026 21:00:00
Barbil,"Forest Office, Barbil - OSPCB",CO,9,22.1166054,85.3945546,09-07-2026 21:00:00
Barbil,"Forest Office, Barbil - OSPCB",OZONE,21,22.1166054,85.3945546,09-07-2026 21:00:00
Bhubaneswar,"Lingraj Mandir, Bhubaneswar - OSPCB",NO2,9,20.24079,85.836784,09-07-2026 21:00:00
Bhubaneswar,"Lingraj Mandir, Bhubaneswar - OSPCB",CO,43,20.24079,85.836784,09-07-2026 21:00:00
Bhubaneswar,"Patia, Bhubaneswar - OSPCB",PM2.5,38,20.34652,85.8163,09-07-2026 21:00:00
Jaipur,"Shastri Nagar, Jaipur - RSPCB",NO2,36,26.9502929,75.730943,09-07-2026 21:00:00
Jaipur,"Shastri Nagar, Jaipur - RSPCB",CO,46,26.9502929,75.730943,09-07-2026 21:00:00
Jaipur,"Shastri Nagar, Jaipur - RSPCB",OZONE,46,26.9502929,75.730943,09-07-2026 21:00:00
Jaisalmer,"Sadar Bazar, Jaisalmer - RSPCB",PM2.5,66,26.912329,70.909168,09-07-2026 21:00:00
Jaisalmer,"Sadar Bazar, Jaisalmer - RSPCB",NO2,9,26.912329,70.909168,09-07-2026 21:00:00
Jalore,"Mudtra Sili, Jalore - RSPCB",CO,21,25.344694,72.626208,09-07-2026 21:00:00
Jhalawar,"Rajlaxmi Nagar, Jhalawar - RSPCB",NO2,28,24.588397,76.172782,09-07-2026 21:00:00
Jhalawar,"Rajlaxmi Nagar, Jhalawar - RSPCB",NH3,,24.588397,76.172782,09-07-2026 21:00:00
Jhunjhunu,"Indra Nagar, Jhunjhunu - RSPCB",SO2,3,28.108988,75.386577,09-07-2026 21:00:00
Jodhpur,"Collectorate, Jodhpur - RSPCB",PM2.5,58,26.268249,73.0193853,09-07-2026 21:00:00
Jodhpur,"Collectorate, Jodhpur - RSPCB",SO2,8,26.268249,73.0193853,09-07-2026 21:00:00
Jodhpur,"Digari Kalan, Jodhpur - RSPCB",PM2.5,37,26.29581,73.082283,09-07-2026 21:00:00
Bundi,"New Colony, Bundi - RSPCB",NO2,38,25.435774,75.644272,09-07-2026 21:00:00
Chittorgarh,"Shastri Nagar, Chittorgarh - RSPCB",PM2.5,70,24.892047,74.623527,09-07-2026 21:00:00
Chittorgarh,"Shastri Nagar, Chittorgarh - RSPCB",SO2,4,24.892047,74.623527,09-07-2026 21:00:00
Churu,"Subash Chowk, Churu - RSPCB",SO2,4,28.296139,74.961696,09-07-2026 21:00:00
Churu,"Subash Chowk, Churu - RSPCB",CO,19,28.296139,74.961696,09-07-2026 21:00:00
Dholpur,"Raja Ganj, Dholpur - RSPCB",CO,39,26.699557,77.898881,09-07-2026 21:00:00
Dungarpur,"Bhoiwada, Dungarpur - RSPCB",PM10,55,23.837789,73.714926,09-07-2026 21:00:00
Dungarpur,"Bhoiwada, Dungarpur - RSPCB",NO2,2,23.837789,73.714926,09-07-2026 21:00:00
Jaipur,"Sector-2 Murlipura, Jaipur - RSPCB",NO2,24,26.960669,75.771817,09-07-2026 21:00:00
Jaipur,"Sector-2 Murlipura, Jaipur - RSPCB",NH3,8,26.960669,75.771817,09-07-2026 21:00:00
Jaipur,"Sector-2 Murlipura, Jaipur - RSPCB",CO,50,26.960669,75.771817,09-07-2026 21:00:00
Thane,"Kasarvadavali, Thane - MPCB",PM10,67,19.26777,72.97182,09-07-2026 21:00:00
Thane,"Upvan Fort, Thane - MPCB",PM10,43,19.222279,72.957979,09-07-2026 21:00:00
Thane,"Upvan Fort, Thane - MPCB",NO2,14,19.222279,72.957979,09-07-2026 21:00:00
Ulhasnagar,"Sidhi Vinayak Nagar, Ulhasnagar - MPCB",CO,20,19.235581,73.159121,09-07-2026 21:00:00
Ulhasnagar,"Vithalwadi, Ulhasnagar - MPCB",SO2,2,19.2307571,73.155192,09-07-2026 21:00:00
Ulhasnagar,"Vithalwadi, Ulhasnagar - MPCB",CO,15,19.2307571,73.155192,09-07-2026 21:00:00
Ulhasnagar,"Vithalwadi, Ulhasnagar - MPCB",OZONE,14,19.2307571,73.155192,09-07-2026 21:00:00
Virar,"Bolinj, Virar - MPCB",NH3,,19.445821,72.7988231,09-07-2026 21:00:00
Byrnihat,"Tamulikuchi, Byrnihat - Meghalaya PCB",NO2,,26.079047,91.875185,09-07-2026 21:00:00
Jodhpur,"Digari Kalan, Jodhpur - RSPCB",CO,13,26.29581,73.082283,09-07-2026 21:00:00
Jodhpur,"Samrat Ashok Udhyan, Jodhpur - RSPCB",SO2,4,26.253384,72.976571,09-07-2026 21:00:00
Kota,"Shrinath Puram, Kota - RSPCB",PM10,67,25.14389,75.821256,09-07-2026 21:00:00
Kota,"Shrinath Puram, Kota - RSPCB",NH3,7,25.14389,75.821256,09-07-2026 21:00:00
Kota,"Dhanmandi, Kota - RSPCB",PM10,71,25.16409,75.858137,09-07-2026 21:00:00
Kota,"Dhanmandi, Kota - RSPCB",OZONE,32,25.16409,75.858137,09-07-2026 21:00:00
Nagaur,"Karni Colony, Nagaur - RSPCB",SO2,3,27.213494,73.734444,09-07-2026 21:00:00
Pali,"Indira Colony Vistar, Pali - RSPCB",PM10,115,25.771061,73.340227,09-07-2026 21:00:00
Pali,"Indira Colony Vistar, Pali - RSPCB",OZONE,37,25.771061,73.340227,09-07-2026 21:00:00
Pratapgarh,"Pragati Nagar, Pratapgarh - RSPCB",PM10,81,24.041198,74.780702,09-07-2026 21:00:00
Pratapgarh,"Pragati Nagar, Pratapgarh - RSPCB",NH3,2,24.041198,74.780702,09-07-2026 21:00:00
Pratapgarh,"Pragati Nagar, Pratapgarh - RSPCB",CO,20,24.041198,74.780702,09-07-2026 21:00:00
Rajsamand,"Dhoinda, Rajsamand - RSPCB",NO2,7,25.03636,73.883502,09-07-2026 21:00:00
Sawai Madhopur,"Sahu Nagar, Sawai Madhopur - RSPCB",PM2.5,28,26.031443,76.359327,09-07-2026 21:00:00
Sawai Madhopur,"Sahu Nagar, Sawai Madhopur - RSPCB",NO2,12,26.031443,76.359327,09-07-2026 21:00:00
Sikar,"Radhakishan Pura, Sikar - RSPCB",PM2.5,67,27.608912,75.153302,09-07-2026 21:00:00
Sikar,"Radhakishan Pura, Sikar - RSPCB",CO,19,27.608912,75.153302,09-07-2026 21:00:00
Sirohi,"Vedhaynath Colony, Sirohi - RSPCB",SO2,5,24.885261,72.857549,09-07-2026 21:00:00
Ajmer,"Civil Lines,  Ajmer - RSPCB",PM2.5,62,26.470859,74.646594,09-07-2026 21:00:00
Ajmer,"Civil Lines,  Ajmer - RSPCB",CO,27,26.470859,74.646594,09-07-2026 21:00:00
Barmer,"Railway Colony, Barmer - RSPCB",PM2.5,46,25.747299,71.393989,09-07-2026 21:00:00
Barmer,"Railway Colony, Barmer - RSPCB",NO2,9,25.747299,71.393989,09-07-2026 21:00:00
Bhilwara,"Pratap Nagar, Bhilwara - RSPCB",NH3,13,25.339605,74.618883,09-07-2026 21:00:00
Bhiwadi,"Vasundhara Nagar_UIT, Bhiwadi - RSPCB",SO2,16,28.207266,76.829265,09-07-2026 21:00:00
Tonk,"Shastri Nagar, Tonk - RSPCB",SO2,2,26.159933,75.780517,09-07-2026 21:00:00
Udaipur,"Ashok Nagar, Udaipur - RSPCB",CO,33,24.5886166,73.6321397,09-07-2026 21:00:00
Gangtok,"Zero Point GICI, Gangtok - SSPCB",PM2.5,,27.33853,88.614099,09-07-2026 21:00:00
Gangtok,"Zero Point GICI, Gangtok - SSPCB",NH3,1,27.33853,88.614099,09-07-2026 21:00:00
Chennai,"Kodungaiyur, Chennai - TNPCB",NH3,4,13.1278,80.2642,09-07-2026 21:00:00
Chennai,"Kodungaiyur, Chennai - TNPCB",SO2,6,13.1278,80.2642,09-07-2026 21:00:00
Chennai,"Kodungaiyur, Chennai - TNPCB",CO,29,13.1278,80.2642,09-07-2026 21:00:00
Chennai,"Manali Village, Chennai - TNPCB",PM2.5,27,13.1662,80.2584,09-07-2026 21:00:00
Chennai,"Manali Village, Chennai - TNPCB",PM10,,13.1662,80.2584,09-07-2026 21:00:00
Chennai,"Manali Village, Chennai - TNPCB",NH3,3,13.1662,80.2584,09-07-2026 21:00:00
Chennai,"Manali Village, Chennai - TNPCB",CO,38,13.1662,80.2584,09-07-2026 21:00:00
Chennai,"Manali Village, Chennai - TNPCB",OZONE,77,13.1662,80.2584,09-07-2026 21:00:00
Chennai,"Manali, Chennai - CPCB",PM2.5,36,13.164544,80.26285,09-07-2026 21:00:00
Chennai,"Manali, Chennai - CPCB",NH3,6,13.164544,80.26285,09-07-2026 21:00:00
Chennai,"Arumbakkam, Chennai - TNPCB",PM2.5,32,13.0664,80.2112,09-07-2026 21:00:00
Chennai,"Arumbakkam, Chennai - TNPCB",PM10,84,13.0664,80.2112,09-07-2026 21:00:00
Chennai,"Velachery Res. Area, Chennai - CPCB",NO2,,13.0052189,80.2398125,09-07-2026 21:00:00
Coimbatore,"SIDCO Kurichi, Coimbatore - TNPCB",NH3,1,10.942451,76.978996,09-07-2026 21:00:00
Coimbatore,"SIDCO Kurichi, Coimbatore - TNPCB",CO,12,10.942451,76.978996,09-07-2026 21:00:00
Jhansi,"Shivaji Nagar, Jhansi - UPPCB",NH3,4,25.4547,78.6039,09-07-2026 21:00:00
Jhansi,"Shivaji Nagar, Jhansi - UPPCB",OZONE,7,25.4547,78.6039,09-07-2026 21:00:00
Kanpur,"Nehru Nagar, Kanpur - UPPCB",PM2.5,12,26.4703136,80.3229863,09-07-2026 21:00:00
Kanpur,"NSI Kalyanpur, Kanpur - UPPCB",PM2.5,15,26.509954,80.249612,09-07-2026 21:00:00
Kanpur,"NSI Kalyanpur, Kanpur - UPPCB",NO2,31,26.509954,80.249612,09-07-2026 21:00:00
Kanpur,"FTI Kidwai Nagar, Kanpur - UPPCB",NH3,3,26.428282,80.327067,09-07-2026 21:00:00
Kanpur,"FTI Kidwai Nagar, Kanpur - UPPCB",CO,34,26.428282,80.327067,09-07-2026 21:00:00
Khurja,"Kalindi Kunj, Khurja - UPPCB",PM2.5,13,28.2348927,77.8683002,09-07-2026 21:00:00
Lucknow,"Kendriya Vidyalaya, Lucknow - CPCB",PM10,31,26.906111,80.948222,09-07-2026 21:00:00
Lucknow,"Kendriya Vidyalaya, Lucknow - CPCB",SO2,7,26.906111,80.948222,09-07-2026 21:00:00
Lucknow,"Kendriya Vidyalaya, Lucknow - CPCB",CO,28,26.906111,80.948222,09-07-2026 21:00:00
Lucknow,"Kukrail Picnic Spot-1, Lucknow - UPPCB",PM10,27,26.90723,80.98579,09-07-2026 21:00:00
Lucknow,"Kukrail Picnic Spot-1, Lucknow - UPPCB",NH3,6,26.90723,80.98579,09-07-2026 21:00:00
Lucknow,"Gomti Nagar, Lucknow - UPPCB",PM10,13,26.86812,81.005119,09-07-2026 21:00:00
Lucknow,"Gomti Nagar, Lucknow - UPPCB",SO2,13,26.86812,81.005119,09-07-2026 21:00:00
Lucknow,"Gomti Nagar, Lucknow - UPPCB",OZONE,40,26.86812,81.005119,09-07-2026 21:00:00
Lucknow,"Talkatora District Industries Center, Lucknow - CPCB",PM10,40,26.83399722,80.8917361,09-07-2026 21:00:00
Lucknow,"Talkatora District Industries Center, Lucknow - CPCB",CO,35,26.83399722,80.8917361,09-07-2026 21:00:00
Gummidipoondi,"Anthoni Pillai Nagar, Gummidipoondi - TNPCB",PM2.5,118,13.4127,80.1081,09-07-2026 21:00:00
Gummidipoondi,"Anthoni Pillai Nagar, Gummidipoondi - TNPCB",CO,,13.4127,80.1081,09-07-2026 21:00:00
Madurai,"Uchapatti, Madurai - TNPCB",PM2.5,,9.865935,78.022669,09-07-2026 21:00:00
Madurai,"Uchapatti, Madurai - TNPCB",PM10,73,9.865935,78.022669,09-07-2026 21:00:00
Madurai,"Uchapatti, Madurai - TNPCB",SO2,53,9.865935,78.022669,09-07-2026 21:00:00
Thoothukudi,"Meelavittan, Thoothukudi - TNPCB",PM2.5,,8.816428,78.099039,09-07-2026 21:00:00
Thoothukudi,"Meelavittan, Thoothukudi - TNPCB",NH3,,8.816428,78.099039,09-07-2026 21:00:00
Thoothukudi,"Meelavittan, Thoothukudi - TNPCB",SO2,10,8.816428,78.099039,09-07-2026 21:00:00
Thoothukudi,"Meelavittan, Thoothukudi - TNPCB",OZONE,32,8.816428,78.099039,09-07-2026 21:00:00
Hyderabad,"Ramachandrapuram, Hyderabad - TSPCB",PM10,57,17.528544,78.286195,09-07-2026 21:00:00
Hyderabad,"IDA Pashamylaram, Hyderabad - TSPCB",PM10,38,17.5316895,78.218939,09-07-2026 21:00:00
Hyderabad,"ICRISAT Patancheru, Hyderabad - TSPCB",PM10,32,17.5184,78.278777,09-07-2026 21:00:00
Hyderabad,"Somajiguda, Hyderabad - TSPCB",PM10,,17.417094,78.457437,09-07-2026 21:00:00
Hyderabad,"Somajiguda, Hyderabad - TSPCB",NO2,13,17.417094,78.457437,09-07-2026 21:00:00
Hyderabad,"Somajiguda, Hyderabad - TSPCB",NH3,3,17.417094,78.457437,09-07-2026 21:00:00
Hyderabad,"Central University, Hyderabad - TSPCB",NO2,13,17.460103,78.334361,09-07-2026 21:00:00
Hyderabad,"Central University, Hyderabad - TSPCB",NH3,2,17.460103,78.334361,09-07-2026 21:00:00
Agra,"Shahjahan Garden, Agra - UPPCB",NH3,1,27.169338,78.03582,09-07-2026 21:00:00
Agra,"Rohta, Agra - UPPCB",PM2.5,24,27.106972,78.000111,09-07-2026 21:00:00
Agra,"Rohta, Agra - UPPCB",NH3,5,27.106972,78.000111,09-07-2026 21:00:00
Agra,"Sanjay Palace, Agra - UPPCB",PM2.5,93,27.19865833,78.00598056,09-07-2026 21:00:00
Agra,"Sanjay Palace, Agra - UPPCB",NH3,,27.19865833,78.00598056,09-07-2026 21:00:00
Agra,"Shastripuram, Agra - UPPCB",NH3,3,27.19862,77.92066,09-07-2026 21:00:00
Agra,"Shastripuram, Agra - UPPCB",SO2,12,27.19862,77.92066,09-07-2026 21:00:00
Agra,"Sector-3B Avas Vikas Colony, Agra - UPPCB",CO,10,27.19412,77.96237,09-07-2026 21:00:00
Baghpat,"Sardar Patel Inter College, Baghpat - UPPCB",NH3,2,28.964949,77.278761,09-07-2026 21:00:00
Bareilly,"Rajendra Nagar, Bareilly - UPPCB",PM10,,28.38910936,79.42963708,09-07-2026 21:00:00
Bareilly,"Rajendra Nagar, Bareilly - UPPCB",SO2,1,28.38910936,79.42963708,09-07-2026 21:00:00
Bareilly,"Civil Lines, Bareilly - UPPCB",PM2.5,,28.359581,79.414455,09-07-2026 21:00:00
Bareilly,"Civil Lines, Bareilly - UPPCB",PM10,,28.359581,79.414455,09-07-2026 21:00:00
Bareilly,"Civil Lines, Bareilly - UPPCB",NO2,9,28.359581,79.414455,09-07-2026 21:00:00
Bareilly,"Civil Lines, Bareilly - UPPCB",SO2,,28.359581,79.414455,09-07-2026 21:00:00
Bareilly,"Civil Lines, Bareilly - UPPCB",OZONE,41,28.359581,79.414455,09-07-2026 21:00:00
Firozabad,"Nagla Bhau, Firozabad - UPPCB",PM2.5,,27.168897,78.37696,09-07-2026 21:00:00
Firozabad,"Nagla Bhau, Firozabad - UPPCB",OZONE,11,27.168897,78.37696,09-07-2026 21:00:00
Firozabad,"Vibhab Nagar, Firozabad - UPPCB",PM2.5,22,27.1594,78.3953,09-07-2026 21:00:00
Ghaziabad,"Indirapuram, Ghaziabad - UPPCB",NH3,12,28.646233,77.358075,09-07-2026 21:00:00
Ghaziabad,"Indirapuram, Ghaziabad - UPPCB",OZONE,20,28.646233,77.358075,09-07-2026 21:00:00
Ghaziabad,"Govindpuram, Ghaziabad - UPPCB",NH3,5,28.694528,77.494705,09-07-2026 21:00:00
Ghaziabad,"Govindpuram, Ghaziabad - UPPCB",SO2,2,28.694528,77.494705,09-07-2026 21:00:00
Ghaziabad,"Sanjay Nagar, Ghaziabad - UPPCB",PM2.5,26,28.685382,77.453839,09-07-2026 21:00:00
Ghaziabad,"Sanjay Nagar, Ghaziabad - UPPCB",NO2,24,28.685382,77.453839,09-07-2026 21:00:00
Ghaziabad,"Vasundhara, Ghaziabad - UPPCB",PM10,20,28.6603346,77.3572563,09-07-2026 21:00:00
Gorakhpur,"Madan Mohan Malaviya University of Technology, Gorakhpur - UPPCB",NO2,11,26.730136,83.433859,09-07-2026 21:00:00
Greater Noida,"Knowledge Park - V, Greater Noida - UPPCB",NH3,9,28.557054,77.453663,09-07-2026 21:00:00
Greater Noida,"Knowledge Park - III, Greater Noida - UPPCB",NH3,11,28.47272,77.482,09-07-2026 21:00:00
Hapur,"Anand Vihar, Hapur - UPPCB",PM2.5,6,28.725645,77.749675,09-07-2026 21:00:00
Lucknow,"Lalbagh, Lucknow - CPCB",OZONE,35,26.8458805,80.9365541,09-07-2026 21:00:00
Mathura,"Pali Dungra, Mathura - UPPCB",SO2,1,27.410954,77.550619,09-07-2026 21:00:00
Meerut,"Jai Bhim Nagar, Meerut - UPPCB",PM2.5,,28.9535882,77.7622941,09-07-2026 21:00:00
Meerut,"Jai Bhim Nagar, Meerut - UPPCB",NH3,9,28.9535882,77.7622941,09-07-2026 21:00:00
Meerut,"Jai Bhim Nagar, Meerut - UPPCB",SO2,10,28.9535882,77.7622941,09-07-2026 21:00:00
Meerut,"Ganga Nagar, Meerut - UPPCB",NO2,25,28.999264,77.7590354,09-07-2026 21:00:00
Meerut,"Ganga Nagar, Meerut - UPPCB",NH3,9,28.999264,77.7590354,09-07-2026 21:00:00
Meerut,"Ganga Nagar, Meerut - UPPCB",SO2,18,28.999264,77.7590354,09-07-2026 21:00:00
Moradabad,"Transport Nagar, Moradabad - UPPCB",NH3,5,28.802625,78.753728,09-07-2026 21:00:00
Moradabad,"Eco Herbal Park, Moradabad - UPPCB",NO2,20,28.840739,78.697531,09-07-2026 21:00:00
Moradabad,"Eco Herbal Park, Moradabad - UPPCB",CO,15,28.840739,78.697531,09-07-2026 21:00:00
Moradabad,"Employment Office, Moradabad - UPPCB",NO2,23,28.88528,78.7388,09-07-2026 21:00:00
Moradabad,"Buddhi Vihar, Moradabad - UPPCB",CO,33,28.83526,78.7446,09-07-2026 21:00:00
Moradabad,"Kashiram Nagar, Moradabad - UPPCB",PM2.5,22,28.849399,78.742362,09-07-2026 21:00:00
Varanasi,"Bhelupur, Varanasi - UPPCB",PM10,42,25.301778,82.996789,09-07-2026 21:00:00
Varanasi,"Bhelupur, Varanasi - UPPCB",OZONE,5,25.301778,82.996789,09-07-2026 21:00:00
Varanasi,"IESD Banaras Hindu University, Varanasi - UPPCB",PM10,34,25.262326,82.995408,09-07-2026 21:00:00
Varanasi,"Ardhali Bazar, Varanasi - UPPCB",PM10,65,25.3505986,82.9083074,09-07-2026 21:00:00
Varanasi,"Ardhali Bazar, Varanasi - UPPCB",NH3,,25.3505986,82.9083074,09-07-2026 21:00:00
Varanasi,"Ardhali Bazar, Varanasi - UPPCB",SO2,12,25.3505986,82.9083074,09-07-2026 21:00:00
Varanasi,"Ardhali Bazar, Varanasi - UPPCB",CO,17,25.3505986,82.9083074,09-07-2026 21:00:00
Dehradun,"Doon University, Dehradun - UKPCB",OZONE,4,30.269444,78.044167,09-07-2026 21:00:00
Rishikesh,"Shivaji Nagar, Rishikesh - UKPCB",PM10,13,30.075911,78.2859547,09-07-2026 21:00:00
Asansol,"Mahabir Colliery, Asansol - WBPCB",PM10,34,23.618183,87.105718,09-07-2026 21:00:00
Asansol,"Evelyn Lodge, Asansol - WBPCB",PM10,27,23.697936,86.944395,09-07-2026 21:00:00
Asansol,"Evelyn Lodge, Asansol - WBPCB",CO,6,23.697936,86.944395,09-07-2026 21:00:00
Hyderabad,"New Malakpet, Hyderabad - TSPCB",PM10,53,17.37206,78.50864,09-07-2026 21:00:00
Hyderabad,"New Malakpet, Hyderabad - TSPCB",CO,37,17.37206,78.50864,09-07-2026 21:00:00
Hyderabad,"Zoo Park, Hyderabad - TSPCB",PM10,36,17.349694,78.451437,09-07-2026 21:00:00
Hyderabad,"Nacharam_TSIIC IALA, Hyderabad - TSPCB",NH3,3,17.429398,78.569354,09-07-2026 21:00:00
Hyderabad,"IITH Kandi, Hyderabad - TSPCB",OZONE,26,17.585705,78.126199,09-07-2026 21:00:00
Hyderabad,"ECIL Kapra, Hyderabad - TSPCB",NO2,14,17.470431,78.566959,09-07-2026 21:00:00
Hyderabad,"Kompally Municipal Office, Hyderabad - TSPCB",NO2,16,17.544899,78.486949,09-07-2026 21:00:00
Hyderabad,"Kompally Municipal Office, Hyderabad - TSPCB",SO2,11,17.544899,78.486949,09-07-2026 21:00:00
Hyderabad,"Sanathnagar, Hyderabad - TSPCB",SO2,9,17.4559458,78.4332152,09-07-2026 21:00:00
Agra,"Manoharpur, Agra - UPPCB",PM10,,27.23711,78.01936,09-07-2026 21:00:00
Muzaffarnagar,"New Mandi, Muzaffarnagar - UPPCB",OZONE,28,29.4723508,77.7194031,09-07-2026 21:00:00
Noida,"Sector - 125, Noida - UPPCB",OZONE,14,28.5447608,77.3231257,09-07-2026 21:00:00
Noida,"Sector-116, Noida - UPPCB",PM10,,28.56923,77.393848,09-07-2026 21:00:00
Noida,"Sector - 62, Noida - IITM",NO2,14,28.6245479,77.3577104,09-07-2026 21:00:00
Noida,"Sector - 62, Noida - IITM",CO,14,28.6245479,77.3577104,09-07-2026 21:00:00
Noida,"Sector - 62, Noida - IITM",OZONE,32,28.6245479,77.3577104,09-07-2026 21:00:00
Prayagraj,"Jhunsi, Prayagraj - UPPCB",NH3,6,25.425602,81.917152,09-07-2026 21:00:00
Prayagraj,"Jhunsi, Prayagraj - UPPCB",CO,14,25.425602,81.917152,09-07-2026 21:00:00
Raebareli,"Anand Nagar, Raebareli - UPPCB",NO2,16,26.219512,81.237648,09-07-2026 21:00:00
Raebareli,"Indira Nagar, Raebareli - NTPC Unchahar",NO2,,26.207781,81.245571,09-07-2026 21:00:00
Asansol,"Asansol Court Area, Asansol - WBPCB",NO2,30,23.685297,86.945968,09-07-2026 21:00:00
Asansol,"Trivenidevi Bhalotia College, Asansol - WBPCB",SO2,30,23.616515,87.119133,09-07-2026 21:00:00
Asansol,"Trivenidevi Bhalotia College, Asansol - WBPCB",OZONE,8,23.616515,87.119133,09-07-2026 21:00:00
Barrackpore,"SVSPA Campus, Barrackpore - WBPCB",PM10,51,22.7605581,88.3617589,09-07-2026 21:00:00
Durgapur,"PCBL Residential Complex, Durgapur - WBPCB",PM10,30,23.508764,87.35444,09-07-2026 21:00:00
Durgapur,"PCBL Residential Complex, Durgapur - WBPCB",CO,20,23.508764,87.35444,09-07-2026 21:00:00
Durgapur,"PCBL Residential Complex, Durgapur - WBPCB",OZONE,2,23.508764,87.35444,09-07-2026 21:00:00
Durgapur,"Mahishkapur Road_B-Zone, Durgapur - WBPCB",OZONE,29,23.567923,87.306843,09-07-2026 21:00:00
Durgapur,"Womens College_City Center, Durgapur - WBPCB",PM10,64,23.549395,87.300496,09-07-2026 21:00:00
Durgapur,"Womens College_City Center, Durgapur - WBPCB",NO2,36,23.549395,87.300496,09-07-2026 21:00:00
Haldia,"Priyambada Housing Estate, Haldia - WBPCB",PM2.5,27,22.06047,88.109737,09-07-2026 21:00:00
Haldia,"Priyambada Housing Estate, Haldia - WBPCB",SO2,13,22.06047,88.109737,09-07-2026 21:00:00
Haldia,"Priyambada Housing Estate, Haldia - WBPCB",OZONE,21,22.06047,88.109737,09-07-2026 21:00:00
Howrah,"Botanical Garden, Howrah - WBPCB",PM2.5,41,22.554954,88.292568,09-07-2026 21:00:00
Howrah,"Botanical Garden, Howrah - WBPCB",SO2,9,22.554954,88.292568,09-07-2026 21:00:00
Howrah,"Dasnagar, Howrah - WBPCB",PM2.5,35,22.6025571,88.3105664,09-07-2026 21:00:00
Howrah,"Dasnagar, Howrah - WBPCB",PM10,49,22.6025571,88.3105664,09-07-2026 21:00:00
Howrah,"Dasnagar, Howrah - WBPCB",NO2,6,22.6025571,88.3105664,09-07-2026 21:00:00
Howrah,"Dasnagar, Howrah - WBPCB",SO2,11,22.6025571,88.3105664,09-07-2026 21:00:00
Howrah,"Dasnagar, Howrah - WBPCB",OZONE,41,22.6025571,88.3105664,09-07-2026 21:00:00
Kolkata,"Victoria, Kolkata - WBPCB",SO2,14,22.5448082,88.3403691,09-07-2026 21:00:00
Kolkata,"Fort William, Kolkata - WBPCB",SO2,5,22.55664,88.342674,09-07-2026 21:00:00
Kolkata,"Rabindra Sarobar, Kolkata - WBPCB",SO2,7,22.51106,88.35142,09-07-2026 21:00:00
Kolkata,"Ballygunge, Kolkata - WBPCB",PM2.5,44,22.5367507,88.3638022,09-07-2026 21:00:00
Kolkata,"Ballygunge, Kolkata - WBPCB",PM10,39,22.5367507,88.3638022,09-07-2026 21:00:00
Kolkata,"Ballygunge, Kolkata - WBPCB",NH3,7,22.5367507,88.3638022,09-07-2026 21:00:00
Kolkata,"Rabindra Bharati University, Kolkata - WBPCB",NH3,7,22.627847,88.380669,09-07-2026 21:00:00
Muzaffarpur,"Buddha Colony, Muzaffarpur - BSPCB",NO2,21,26.11442,85.39813,09-07-2026 21:00:00
Muzaffarpur,"Buddha Colony, Muzaffarpur - BSPCB",NH3,7,26.11442,85.39813,09-07-2026 21:00:00
Muzaffarpur,"Buddha Colony, Muzaffarpur - BSPCB",SO2,4,26.11442,85.39813,09-07-2026 21:00:00
Patna,"Govt. High School Shikarpur, Patna - BSPCB",PM10,70,25.592539,85.227158,09-07-2026 21:00:00
Patna,"Govt. High School Shikarpur, Patna - BSPCB",NO2,12,25.592539,85.227158,09-07-2026 21:00:00
Patna,"Govt. High School Shikarpur, Patna - BSPCB",SO2,13,25.592539,85.227158,09-07-2026 21:00:00
Patna,"Rajbansi Nagar, Patna - BSPCB",PM2.5,30,25.599486,85.113666,09-07-2026 21:00:00
Patna,"Muradpur, Patna - BSPCB",NH3,,25.619651,85.147382,09-07-2026 21:00:00
Patna,"Muradpur, Patna - BSPCB",SO2,,25.619651,85.147382,09-07-2026 21:00:00
Patna,"DRM Office Danapur, Patna - BSPCB",PM10,50,25.586562,85.043586,09-07-2026 21:00:00
Patna,"Samanpura, Patna - BSPCB",OZONE,37,25.596727,85.085624,09-07-2026 21:00:00
Purnia,"Mariam Nagar, Purnia - BSPCB",PM10,46,25.366336,87.117468,09-07-2026 21:00:00
Purnia,"Mariam Nagar, Purnia - BSPCB",NO2,6,25.366336,87.117468,09-07-2026 21:00:00
Purnia,"Mariam Nagar, Purnia - BSPCB",NH3,2,25.366336,87.117468,09-07-2026 21:00:00
Purnia,"Mariam Nagar, Purnia - BSPCB",OZONE,24,25.366336,87.117468,09-07-2026 21:00:00
Rajgir,"Dangi Tola, Rajgir - BSPCB",PM10,51,25.0328,85.41948,09-07-2026 21:00:00
Rajgir,"Dangi Tola, Rajgir - BSPCB",NH3,3,25.0328,85.41948,09-07-2026 21:00:00
Korba,"Urja Nagar, Korba - CECB",NO2,6,22.348441,82.549611,09-07-2026 21:00:00
Korba,"Urja Nagar, Korba - CECB",SO2,11,22.348441,82.549611,09-07-2026 21:00:00
Korba,"Urja Nagar, Korba - CECB",OZONE,2,22.348441,82.549611,09-07-2026 21:00:00
Korba,"Rampur, Korba - CECB",SO2,5,22.368195,82.746431,09-07-2026 21:00:00
Kunjemura,"OP Jindal School, Kunjemura - CECB",OZONE,10,22.12665,83.483212,09-07-2026 21:00:00
Milupara,"Govt. Higher Secondary School, Milupara - CECB",CO,23,22.1910172,83.5197009,09-07-2026 21:00:00
Raipur,"Bhatagaon New ISBT, Raipur - CECB",PM10,18,21.219665,81.630094,09-07-2026 21:00:00
Raipur,"Siltara Phase-II, Raipur - CECB",NH3,2,21.371751,81.664929,09-07-2026 21:00:00
Raipur,"AIIMS, Raipur - CECB",SO2,4,21.258815,81.578979,09-07-2026 21:00:00
Raipur,"AIIMS, Raipur - CECB",CO,17,21.258815,81.578979,09-07-2026 21:00:00
Raipur,"AIIMS, Raipur - CECB",OZONE,13,21.258815,81.578979,09-07-2026 21:00:00
Raipur,"Krishak Nagar, Raipur - CECB",NO2,2,21.237755,81.705301,09-07-2026 21:00:00
Tumidih,"OP Jindal Industrial Park, Tumidih - CECB",SO2,5,22.06631475,83.33820077,09-07-2026 21:00:00
Delhi,"Pusa, Delhi - IITM",NO2,41,28.63611,77.173332,09-07-2026 21:00:00
Saharsa,"Police Line, Saharsa - BSPCB",PM10,84,25.892357,86.590325,09-07-2026 21:00:00
Saharsa,"Police Line, Saharsa - BSPCB",SO2,17,25.892357,86.590325,09-07-2026 21:00:00
Samastipur,"DM Office_Kasipur, Samastipur - BSPCB",SO2,19,25.859655,85.77944,09-07-2026 21:00:00
Siwan,"Chitragupta Nagar, Siwan - BSPCB",NO2,2,26.2271665,84.3570427,09-07-2026 21:00:00
Chandigarh,"Sector-25, Chandigarh - CPCC",NO2,10,30.751462,76.762879,09-07-2026 21:00:00
Chandigarh,"Sector 22, Chandigarh - CPCC",PM2.5,19,30.735567,76.775714,09-07-2026 21:00:00
Chandigarh,"Sector 22, Chandigarh - CPCC",PM10,20,30.735567,76.775714,09-07-2026 21:00:00
Chandigarh,"Sector-53, Chandigarh - CPCC",NH3,19,30.719859,76.738637,09-07-2026 21:00:00
Bhilai,"32Bungalows, Bhilai - CECB",PM2.5,,21.194815,81.31477,09-07-2026 21:00:00
Bhilai,"32Bungalows, Bhilai - CECB",NO2,,21.194815,81.31477,09-07-2026 21:00:00
Bhilai,"32Bungalows, Bhilai - CECB",CO,4,21.194815,81.31477,09-07-2026 21:00:00
Bhilai,"Hathkhoj, Bhilai - CECB",CO,9,21.224231,81.40835,09-07-2026 21:00:00
Chhal,"Nawapara SECL Colony, Chhal - CECB",PM2.5,25,22.118125,83.140608,09-07-2026 21:00:00
Chhal,"Nawapara SECL Colony, Chhal - CECB",SO2,9,22.118125,83.140608,09-07-2026 21:00:00
Naharlagun,"Naharlagun, Naharlagun - APSPCB",NH3,1,27.103358,93.679645,09-07-2026 21:00:00
Byrnihat,"Central Academy for SFS, Byrnihat - PCBA",PM10,,26.071318,91.87488,09-07-2026 21:00:00
Guwahati,"IITG, Guwahati - PCBA",OZONE,8,26.2028636,91.70046436,09-07-2026 21:00:00
Guwahati,"Railway Colony, Guwahati - PCBA",NO2,3,26.181742,91.78063,09-07-2026 21:00:00
Guwahati,"LGBI Airport, Guwahati - PCBA",PM2.5,53,26.10887,91.589544,09-07-2026 21:00:00
Guwahati,"Pan Bazaar, Guwahati - PCBA",PM2.5,288,26.1875,91.744194,09-07-2026 21:00:00
Guwahati,"Pan Bazaar, Guwahati - PCBA",NH3,1,26.1875,91.744194,09-07-2026 21:00:00
Guwahati,"Pan Bazaar, Guwahati - PCBA",CO,18,26.1875,91.744194,09-07-2026 21:00:00
Nagaon,"Christianpatty, Nagaon - PCBA",NH3,4,26.349082,92.68449,09-07-2026 21:00:00
Nagaon,"Christianpatty, Nagaon - PCBA",OZONE,9,26.349082,92.68449,09-07-2026 21:00:00
Nalbari,"Bata Chowk, Nalbari - PCBA",NH3,6,26.446912,91.439057,09-07-2026 21:00:00
Nalbari,"Bata Chowk, Nalbari - PCBA",SO2,8,26.446912,91.439057,09-07-2026 21:00:00
Silchar,"Tarapur, Silchar - PCBA",NO2,18,24.82827,92.79525,09-07-2026 21:00:00
Hajipur,"Industrial Area, Hajipur - BSPCB",NH3,15,25.697189,85.2459,09-07-2026 21:00:00
Katihar,"Mirchaibari, Katihar - BSPCB",NH3,1,25.560083,87.553265,09-07-2026 21:00:00
Katihar,"Mirchaibari, Katihar - BSPCB",SO2,21,25.560083,87.553265,09-07-2026 21:00:00
Kishanganj,"SDM Office_Khagra, Kishanganj - BSPCB",PM2.5,61,26.0881305,87.93840336,09-07-2026 21:00:00
Kishanganj,"SDM Office_Khagra, Kishanganj - BSPCB",NH3,3,26.0881305,87.93840336,09-07-2026 21:00:00
Kishanganj,"SDM Office_Khagra, Kishanganj - BSPCB",CO,14,26.0881305,87.93840336,09-07-2026 21:00:00
Manguraha,"Forest Rest House, Manguraha - BSPCB",PM10,,27.308328,84.531742,09-07-2026 21:00:00
Motihari,"Gandak Colony, Motihari - BSPCB",NO2,,26.63086,84.90051,09-07-2026 21:00:00
Motihari,"Gandak Colony, Motihari - BSPCB",OZONE,57,26.63086,84.90051,09-07-2026 21:00:00
Munger,"Town Hall, Munger - BSPCB",PM10,41,25.376776,86.471523,09-07-2026 21:00:00
Muzaffarpur,"MIT-Daudpur Kothi, Muzaffarpur - BSPCB",NO2,7,26.1403345,85.3650192,09-07-2026 21:00:00
Muzaffarpur,"MIT-Daudpur Kothi, Muzaffarpur - BSPCB",CO,100,26.1403345,85.3650192,09-07-2026 21:00:00
Chittoor,"Gangineni Cheruvu, Chittoor - APPCB",NH3,7,13.20488,79.097889,09-07-2026 21:00:00
Chittoor,"Gangineni Cheruvu, Chittoor - APPCB",SO2,19,13.20488,79.097889,09-07-2026 21:00:00
Guntur,"Rajendra Nagar North, Guntur - APPCB",CO,37,16.316553,80.413302,09-07-2026 21:00:00
Guntur,"Rajendra Nagar North, Guntur - APPCB",OZONE,35,16.316553,80.413302,09-07-2026 21:00:00
Kurnool,"Sita Rama Nagar, Kurnool - APPCB",PM2.5,34,15.83411,78.028546,09-07-2026 21:00:00
Kurnool,"Sita Rama Nagar, Kurnool - APPCB",PM10,38,15.83411,78.028546,09-07-2026 21:00:00
Kurnool,"Sita Rama Nagar, Kurnool - APPCB",SO2,10,15.83411,78.028546,09-07-2026 21:00:00
Kurnool,"Sita Rama Nagar, Kurnool - APPCB",CO,8,15.83411,78.028546,09-07-2026 21:00:00
Nellore,"Ambedkar Nagar, Nellore - APPCB",NO2,24,14.438164,79.966814,09-07-2026 21:00:00
Nellore,"Ambedkar Nagar, Nellore - APPCB",NH3,6,14.438164,79.966814,09-07-2026 21:00:00
Silchar,"Tarapur, Silchar - PCBA",OZONE,2,24.82827,92.79525,09-07-2026 21:00:00
Sivasagar,"Girls College, Sivasagar - PCBA",PM2.5,13,26.987634,94.636574,09-07-2026 21:00:00
Sivasagar,"Girls College, Sivasagar - PCBA",NH3,7,26.987634,94.636574,09-07-2026 21:00:00
Sivasagar,"Girls College, Sivasagar - PCBA",CO,19,26.987634,94.636574,09-07-2026 21:00:00
Arrah,"New DM Office, Arrah - BSPCB",PM2.5,297,25.5626095,84.663264,09-07-2026 21:00:00
Aurangabad,"Gurdeo Nagar, Aurangabad - BSPCB",NH3,1,24.75746,84.366208,09-07-2026 21:00:00
Bhagalpur,"DM Office_Kachari Chowk, Bhagalpur - BSPCB",OZONE,18,25.251013,86.989001,09-07-2026 21:00:00
Bhagalpur,"Mayaganj, Bhagalpur - BSPCB",NO2,7,25.265194,87.012947,09-07-2026 21:00:00
Rajamahendravaram,"Anand Kala Kshetram, Rajamahendravaram - APPCB",PM2.5,23,16.9872867,81.7363176,09-07-2026 21:00:00
Rajamahendravaram,"Anand Kala Kshetram, Rajamahendravaram - APPCB",PM10,45,16.9872867,81.7363176,09-07-2026 21:00:00
Tirumala,"Toll Gate, Tirumala - APPCB",SO2,6,13.67,79.35,09-07-2026 21:00:00
Tirupati,"Vaikuntapuram, Tirupati - APPCB",PM10,74,13.615387,79.40923,09-07-2026 21:00:00
Vijayawada,"Rajiv Nagar, Vijayawada - APPCB",OZONE,23,16.554731,80.64911,09-07-2026 21:00:00
Vijayawada,"Rajiv Gandhi Park, Vijayawada - APPCB",NO2,21,16.509717,80.612222,09-07-2026 21:00:00
Bhagalpur,"Mayaganj, Bhagalpur - BSPCB",NH3,2,25.265194,87.012947,09-07-2026 21:00:00
Buxar,"Charitra Van, Buxar - BSPCB",CO,25,25.56752,83.966379,09-07-2026 21:00:00
Gaya,"Kareemganj, Gaya - BSPCB",PM10,78,24.792403,84.992416,09-07-2026 21:00:00
Gaya,"SFTI Kusdihra, Gaya - BSPCB",NH3,5,24.762518,84.982348,09-07-2026 21:00:00
Amaravati,"Secretariat, Amaravati - APPCB",PM2.5,30,16.5150833,80.5181667,09-07-2026 21:00:00
Amaravati,"Secretariat, Amaravati - APPCB",PM10,65,16.5150833,80.5181667,09-07-2026 21:00:00
Amaravati,"Secretariat, Amaravati - APPCB",SO2,18,16.5150833,80.5181667,09-07-2026 21:00:00
Anantapur,"Gulzarpet, Anantapur - APPCB",OZONE,39,14.675886,77.593027,09-07-2026 21:00:00
Delhi,"Punjabi Bagh, Delhi - DPCC",CO,46,28.674045,77.131023,09-07-2026 21:00:00
Delhi,"Shadipur, Delhi - CPCB",PM2.5,31,28.6514781,77.1473105,09-07-2026 21:00:00
Delhi,"Shadipur, Delhi - CPCB",NO2,35,28.6514781,77.1473105,09-07-2026 21:00:00
Delhi,"IGNOU_Maidan Garhi, Delhi - DPCC",PM2.5,8,28.493624,77.201159,09-07-2026 21:00:00
Delhi,"IGNOU_Maidan Garhi, Delhi - DPCC",PM10,23,28.493624,77.201159,09-07-2026 21:00:00
Delhi,"IGI Airport (T3), Delhi - IITM",PM2.5,16,28.5627763,77.1180053,09-07-2026 21:00:00
Delhi,"IGI Airport (T3), Delhi - IITM",NH3,,28.5627763,77.1180053,09-07-2026 21:00:00
Delhi,"Sirifort, Delhi - CPCB",PM2.5,,28.5504249,77.2159377,09-07-2026 21:00:00
Delhi,"Sirifort, Delhi - CPCB",PM10,,28.5504249,77.2159377,09-07-2026 21:00:00
Delhi,"Sirifort, Delhi - CPCB",SO2,20,28.5504249,77.2159377,09-07-2026 21:00:00
Delhi,"Chandni Chowk, Delhi - IITM",CO,64,28.656756,77.227234,09-07-2026 21:00:00
Delhi,"Mandir Marg, Delhi - DPCC",PM10,46,28.636429,77.201067,09-07-2026 21:00:00
Delhi,"Mandir Marg, Delhi - DPCC",SO2,12,28.636429,77.201067,09-07-2026 21:00:00
Delhi,"Mandir Marg, Delhi - DPCC",CO,91,28.636429,77.201067,09-07-2026 21:00:00
Delhi,"Pusa, Delhi - DPCC",PM10,36,28.639652,77.146275,09-07-2026 21:00:00
Delhi,"Pusa, Delhi - DPCC",OZONE,7,28.639652,77.146275,09-07-2026 21:00:00
Ahmedabad,"SAC ISRO Satellite, Ahmedabad - IITM",SO2,2,23.023389,72.515201,09-07-2026 21:00:00
Ahmedabad,"Maninagar, Ahmedabad - GPCB",PM10,84,23.002657,72.591912,09-07-2026 21:00:00
Ahmedabad,"Chandkheda, Ahmedabad - IITM",PM2.5,48,23.107969,72.574648,09-07-2026 21:00:00
Ahmedabad,"SAC ISRO Bopal, Ahmedabad - IITM",PM10,72,23.041137,72.456691,09-07-2026 21:00:00
Ahmedabad,"Gyaspur, Ahmedabad - IITM",PM2.5,29,22.977134,72.553024,09-07-2026 21:00:00
Ahmedabad,"SVPI Airport Hansol, Ahmedabad - IITM",NO2,21,23.076793,72.627874,09-07-2026 21:00:00
Ahmedabad,"Rakhial, Ahmedabad - IITM",PM10,93,23.016834,72.625775,09-07-2026 21:00:00
Ahmedabad,"Rakhial, Ahmedabad - IITM",SO2,13,23.016834,72.625775,09-07-2026 21:00:00
Ahmedabad,"Rakhial, Ahmedabad - IITM",CO,85,23.016834,72.625775,09-07-2026 21:00:00
Ahmedabad,"Rakhial, Ahmedabad - IITM",OZONE,5,23.016834,72.625775,09-07-2026 21:00:00
Bhavnagar,"Vidhyanagar, Bhavnagar - Nexteng Enviro",PM10,67,21.755417,72.139056,09-07-2026 21:00:00
Bhiwani,"H.B. Colony, Bhiwani - HSPCB",NO2,8,28.806223,76.141105,09-07-2026 21:00:00
Charkhi Dadri,"Mini Secretariat, Charkhi Dadri - HSPCB",SO2,10,28.593883,76.270653,09-07-2026 21:00:00
Charkhi Dadri,"Mini Secretariat, Charkhi Dadri - HSPCB",CO,13,28.593883,76.270653,09-07-2026 21:00:00
Dharuhera,"Municipal Corporation Office, Dharuhera -  HSPCB",CO,72,28.2068,76.7997,09-07-2026 21:00:00
Faridabad,"New Industrial Town, Faridabad - HSPCB",SO2,14,28.39072,77.30059,09-07-2026 21:00:00
Faridabad,"New Industrial Town, Faridabad - HSPCB",CO,23,28.39072,77.30059,09-07-2026 21:00:00
Faridabad,"New Industrial Town, Faridabad - HSPCB",OZONE,14,28.39072,77.30059,09-07-2026 21:00:00
Faridabad,"Sector 30, Faridabad - HSPCB",NO2,,28.4417,77.3217,09-07-2026 21:00:00
Faridabad,"Sector 30, Faridabad - HSPCB",NH3,,28.4417,77.3217,09-07-2026 21:00:00
Faridabad,"Sector 30, Faridabad - HSPCB",OZONE,20,28.4417,77.3217,09-07-2026 21:00:00
Faridabad,"Sector 11, Faridabad - HSPCB",PM2.5,88,28.376058,77.315741,09-07-2026 21:00:00
Faridabad,"Sector 11, Faridabad - HSPCB",OZONE,25,28.376058,77.315741,09-07-2026 21:00:00
Fatehabad,"Huda Sector, Fatehabad - HSPCB",PM10,56,29.503664,75.467934,09-07-2026 21:00:00
Delhi,"Cantonment Area, Delhi - DPCC",PM2.5,10,28.594169,77.1251,09-07-2026 21:00:00
Delhi,"Cantonment Area, Delhi - DPCC",PM10,25,28.594169,77.1251,09-07-2026 21:00:00
Delhi,"Sonia Vihar, Delhi - DPCC",NO2,9,28.710508,77.249485,09-07-2026 21:00:00
Delhi,"Sonia Vihar, Delhi - DPCC",CO,43,28.710508,77.249485,09-07-2026 21:00:00
Delhi,"Bawana, Delhi - DPCC",OZONE,4,28.7762,77.051074,09-07-2026 21:00:00
Delhi,"Patparganj, Delhi - DPCC",PM2.5,16,28.623763,77.287209,09-07-2026 21:00:00
Delhi,"Patparganj, Delhi - DPCC",NO2,13,28.623763,77.287209,09-07-2026 21:00:00
Delhi,"Patparganj, Delhi - DPCC",SO2,6,28.623763,77.287209,09-07-2026 21:00:00
Delhi,"Jawaharlal Nehru Stadium, Delhi - DPCC",PM10,49,28.58028,77.233829,09-07-2026 21:00:00
Delhi,"Jawaharlal Nehru Stadium, Delhi - DPCC",CO,34,28.58028,77.233829,09-07-2026 21:00:00
Delhi,"Jawaharlal Nehru Stadium, Delhi - DPCC",OZONE,21,28.58028,77.233829,09-07-2026 21:00:00
Delhi,"IHBAS, Dilshad Garden, Delhi - CPCB",NH3,4,28.6811736,77.3025234,09-07-2026 21:00:00
Delhi,"Sri Aurobindo Marg, Delhi - DPCC",SO2,7,28.531346,77.190156,09-07-2026 21:00:00
Gandhinagar,"IIPHG Lekawada, Gandhinagar - IITM",PM2.5,38,23.243639,72.68994,09-07-2026 21:00:00
Gandhinagar,"IIPHG Lekawada, Gandhinagar - IITM",NO2,7,23.243639,72.68994,09-07-2026 21:00:00
Gandhinagar,"Sector-10, Gandhinagar - GPCB",SO2,5,23.221714,72.654328,09-07-2026 21:00:00
Gandhinagar,"GIFT City, Gandhinagar - IITM",PM2.5,52,23.163798,72.677768,09-07-2026 21:00:00
Mehsana,"Sadanand Nagar, Mehsana - Nexteng Enviro",CO,70,23.59315,72.372792,09-07-2026 21:00:00
Rajkot,"Mavdi, Rajkot - Nexteng Enviro",NH3,1,22.248853,70.776774,09-07-2026 21:00:00
Rajkot,"Mavdi, Rajkot - Nexteng Enviro",SO2,10,22.248853,70.776774,09-07-2026 21:00:00
Surat,"Katargam, Surat - Nexteng Enviro",PM2.5,27,21.217779,72.834787,09-07-2026 21:00:00
Vapi,"Phase-1 GIDC, Vapi - GPCB",NO2,16,20.362421,72.918013,09-07-2026 21:00:00
Vatva,"Phase-4 GIDC, Vatva - GPCB",PM2.5,57,22.969611,72.6435,09-07-2026 21:00:00
Delhi,"Anand Vihar, Delhi - DPCC",SO2,19,28.647622,77.315809,09-07-2026 21:00:00
Delhi,"Anand Vihar, Delhi - DPCC",CO,89,28.647622,77.315809,09-07-2026 21:00:00
Delhi,"Anand Vihar, Delhi - DPCC",OZONE,7,28.647622,77.315809,09-07-2026 21:00:00
Delhi,"Ashok Vihar, Delhi - DPCC",SO2,11,28.695381,77.181665,09-07-2026 21:00:00
Delhi,"Dwarka-Sector 8, Delhi - DPCC",NO2,13,28.5710274,77.0719006,09-07-2026 21:00:00
Delhi,"Dwarka-Sector 8, Delhi - DPCC",OZONE,20,28.5710274,77.0719006,09-07-2026 21:00:00
Delhi,"DTU, Delhi - CPCB",OZONE,18,28.7500499,77.1112615,09-07-2026 21:00:00
Delhi,"IIT Delhi, Delhi - IITM",CO,35,28.54246,77.191651,09-07-2026 21:00:00
Delhi,"ITO, Delhi - CPCB",NO2,56,28.628624,77.24106,09-07-2026 21:00:00
Delhi,"ITO, Delhi - CPCB",NH3,4,28.628624,77.24106,09-07-2026 21:00:00
Delhi,"R K Puram, Delhi - DPCC",NO2,31,28.563262,77.186937,09-07-2026 21:00:00
Delhi,"R K Puram, Delhi - DPCC",NH3,6,28.563262,77.186937,09-07-2026 21:00:00
Delhi,"IMD Lodhi Road, Delhi - IITM",CO,33,28.5918245,77.2273074,09-07-2026 21:00:00
Delhi,"Burari Crossing, Delhi - IITM",NO2,18,28.7256504,77.2011573,09-07-2026 21:00:00
Delhi,"Burari Crossing, Delhi - IITM",OZONE,24,28.7256504,77.2011573,09-07-2026 21:00:00
Delhi,"Narela, Delhi - DPCC",SO2,,28.822836,77.101981,09-07-2026 21:00:00
Delhi,"JNU, Delhi - DPCC",NO2,18,28.540721,77.168544,09-07-2026 21:00:00
Delhi,"CRRI Mathura Road, Delhi - IITM",PM2.5,18,28.5512005,77.2735737,09-07-2026 21:00:00
Delhi,"CRRI Mathura Road, Delhi - IITM",NO2,34,28.5512005,77.2735737,09-07-2026 21:00:00
Delhi,"NSUT Jaffarpur, Delhi - DPCC",NH3,2,28.594004,76.909423,09-07-2026 21:00:00
Gurugram,"NISE Gwal Pahari, Gurugram - IITM",CO,66,28.422681,77.148944,09-07-2026 21:00:00
Gurugram,"Sector-51, Gurugram - HSPCB",NH3,10,28.4227,77.0667,09-07-2026 21:00:00
Gurugram,"Teri Gram, Gurugram - HSPCB",PM2.5,87,28.4275,77.1465,09-07-2026 21:00:00
Hisar,"Urban Estate-II, Hisar - HSPCB",PM10,,29.14056,75.744941,09-07-2026 21:00:00
Hisar,"Urban Estate-II, Hisar - HSPCB",OZONE,,29.14056,75.744941,09-07-2026 21:00:00
Jind,"Police Lines, Jind - HSPCB",PM10,35,29.307814,76.337619,09-07-2026 21:00:00
Jind,"Police Lines, Jind - HSPCB",CO,47,29.307814,76.337619,09-07-2026 21:00:00
Delhi,"Rohini, Delhi - DPCC",NO2,11,28.732528,77.11992,09-07-2026 21:00:00
Delhi,"Rohini, Delhi - DPCC",SO2,6,28.732528,77.11992,09-07-2026 21:00:00
Delhi,"Rohini, Delhi - DPCC",CO,51,28.732528,77.11992,09-07-2026 21:00:00
Delhi,"Vivek Vihar, Delhi - DPCC",PM2.5,28,28.672342,77.31526,09-07-2026 21:00:00
Delhi,"Vivek Vihar, Delhi - DPCC",NO2,30,28.672342,77.31526,09-07-2026 21:00:00
Delhi,"Vivek Vihar, Delhi - DPCC",NH3,7,28.672342,77.31526,09-07-2026 21:00:00
Delhi,"Vivek Vihar, Delhi - DPCC",SO2,8,28.672342,77.31526,09-07-2026 21:00:00
Delhi,"Najafgarh, Delhi - DPCC",PM2.5,27,28.570173,76.933762,09-07-2026 21:00:00
Delhi,"Wazirpur, Delhi - DPCC",NO2,28,28.699793,77.165453,09-07-2026 21:00:00
Bengaluru,"Kasturi Nagar, Bengaluru - KSPCB",PM10,74,13.003872,77.664217,09-07-2026 21:00:00
Bengaluru,"Sanegurava Halli, Bengaluru - KSPCB",NO2,18,12.990328,77.5431385,09-07-2026 21:00:00
Bengaluru,"Sanegurava Halli, Bengaluru - KSPCB",CO,17,12.990328,77.5431385,09-07-2026 21:00:00
Bengaluru,"City Railway Station, Bengaluru - KSPCB",PM10,109,12.9756843,77.5660749,09-07-2026 21:00:00
Bengaluru,"City Railway Station, Bengaluru - KSPCB",NO2,31,12.9756843,77.5660749,09-07-2026 21:00:00
Bengaluru,"City Railway Station, Bengaluru - KSPCB",SO2,15,12.9756843,77.5660749,09-07-2026 21:00:00
Bengaluru,"Hebbal, Bengaluru - KSPCB",NH3,2,13.029152,77.585901,09-07-2026 21:00:00
Bengaluru,"Jigani, Bengaluru - KSPCB",PM2.5,40,12.7816279,77.6299145,09-07-2026 21:00:00
Bengaluru,"Jigani, Bengaluru - KSPCB",SO2,18,12.7816279,77.6299145,09-07-2026 21:00:00
Bengaluru,"Bapuji Nagar, Bengaluru - KSPCB",PM2.5,24,12.951913,77.539784,09-07-2026 21:00:00
Bengaluru,"Bapuji Nagar, Bengaluru - KSPCB",SO2,28,12.951913,77.539784,09-07-2026 21:00:00
Chamarajanagar,"Urban, Chamarajanagar - KSPCB",PM10,45,11.55358,76.55521,09-07-2026 21:00:00
Chikkamagaluru,"Kalyana Nagara, Chikkamagaluru - KSPCB",PM10,38,13.328028,75.797056,09-07-2026 21:00:00
Chikkamagaluru,"Kalyana Nagara, Chikkamagaluru - KSPCB",NO2,17,13.328028,75.797056,09-07-2026 21:00:00
Chikkamagaluru,"Kalyana Nagara, Chikkamagaluru - KSPCB",CO,34,13.328028,75.797056,09-07-2026 21:00:00
Dharwad,"Kalabhavan, Dharwad - KSPCB",PM2.5,47,15.459706,75.008381,09-07-2026 21:00:00
Gadag,"Panchal Nagar, Gadag - KSPCB",PM10,35,15.411456,75.638133,09-07-2026 21:00:00
Gadag,"Panchal Nagar, Gadag - KSPCB",NH3,4,15.411456,75.638133,09-07-2026 21:00:00
Srinagar,"Rajbagh, Srinagar - JKPCC",NH3,9,34.066206,74.81982,09-07-2026 21:00:00
Srinagar,"Rajbagh, Srinagar - JKPCC",OZONE,2,34.066206,74.81982,09-07-2026 21:00:00
Dhanbad,"Sardar Patel Nagar, Dhanbad - JSPCB",CO,8,23.80569,86.44268,09-07-2026 21:00:00
Jorapokhar,"Tata Stadium, Jorapokhar - JSPCB",SO2,4,23.707909,86.41467,09-07-2026 21:00:00
Bagalkot,"Vidayagiri, Bagalkot - KSPCB",SO2,10,16.172806,75.659694,09-07-2026 21:00:00
Bengaluru,"Silk Board, Bengaluru - KSPCB",PM2.5,27,12.917348,77.622813,09-07-2026 21:00:00
Bengaluru,"Silk Board, Bengaluru - KSPCB",NO2,9,12.917348,77.622813,09-07-2026 21:00:00
Bengaluru,"Silk Board, Bengaluru - KSPCB",SO2,1,12.917348,77.622813,09-07-2026 21:00:00
Bengaluru,"Hombegowda Nagar, Bengaluru - KSPCB",CO,10,12.938539,77.5901,09-07-2026 21:00:00
Bengaluru,"BWSSB Kadabesanahalli, Bengaluru - CPCB",PM10,54,12.9352049,77.6814488,09-07-2026 21:00:00
Bengaluru,"BWSSB Kadabesanahalli, Bengaluru - CPCB",SO2,4,12.9352049,77.6814488,09-07-2026 21:00:00
Bengaluru,"BWSSB Kadabesanahalli, Bengaluru - CPCB",CO,37,12.9352049,77.6814488,09-07-2026 21:00:00
Bengaluru,"Jayanagar 5th Block, Bengaluru - KSPCB",PM2.5,35,12.920984,77.584908,09-07-2026 21:00:00
Bengaluru,"Jayanagar 5th Block, Bengaluru - KSPCB",PM10,47,12.920984,77.584908,09-07-2026 21:00:00
Bengaluru,"Jayanagar 5th Block, Bengaluru - KSPCB",SO2,22,12.920984,77.584908,09-07-2026 21:00:00
Indore,"Maguda Nagar, Indore - IMC",PM10,36,22.7524,75.8872,09-07-2026 21:00:00
Indore,"Maguda Nagar, Indore - IMC",NH3,,22.7524,75.8872,09-07-2026 21:00:00
Indore,"Chhoti Gwaltoli, Indore - MPPCB",PM10,84,22.431,75.5213,09-07-2026 21:00:00
Indore,"Chhoti Gwaltoli, Indore - MPPCB",SO2,22,22.431,75.5213,09-07-2026 21:00:00
Indore,"Chhoti Gwaltoli, Indore - MPPCB",CO,31,22.431,75.5213,09-07-2026 21:00:00
Indore,"Airport Area, Indore - IMC",NO2,72,22.7289,75.8076,09-07-2026 21:00:00
Indore,"Airport Area, Indore - IMC",SO2,7,22.7289,75.8076,09-07-2026 21:00:00
Jabalpur,"Govindh Bhavan Colony, Jabalpur - JMC",PM2.5,228,23.163174,79.973061,09-07-2026 21:00:00
Jabalpur,"Govindh Bhavan Colony, Jabalpur - JMC",NO2,10,23.163174,79.973061,09-07-2026 21:00:00
Jabalpur,"Govindh Bhavan Colony, Jabalpur - JMC",SO2,2,23.163174,79.973061,09-07-2026 21:00:00
Jabalpur,"Suhagi, Jabalpur - JMC",NO2,,23.218135,79.95777,09-07-2026 21:00:00
Jabalpur,"Suhagi, Jabalpur - JMC",NH3,,23.218135,79.95777,09-07-2026 21:00:00
Katni,"Gole Bazar, Katni - MPPCB",PM10,75,23.50016,80.23284,09-07-2026 21:00:00
Katni,"Gole Bazar, Katni - MPPCB",NO2,13,23.50016,80.23284,09-07-2026 21:00:00
Maihar,"Sahilara, Maihar - KJS Cements",PM10,37,24.2613009,80.7231783,09-07-2026 21:00:00
Panipat,"Sector-18, Panipat - HSPCB",PM2.5,38,29.432304,76.972765,09-07-2026 21:00:00
Sirsa,"F-Block, Sirsa - HSPCB",SO2,22,29.5364,75.0158,09-07-2026 21:00:00
Sonipat,"Murthal, Sonipat - HSPCB",NO2,,29.0272,77.0621,09-07-2026 21:00:00
Sonipat,"Murthal, Sonipat - HSPCB",NH3,,29.0272,77.0621,09-07-2026 21:00:00
Sonipat,"Murthal, Sonipat - HSPCB",SO2,,29.0272,77.0621,09-07-2026 21:00:00
Yamuna Nagar,"Gobind Pura, Yamuna Nagar - HSPCB",NO2,,30.1480566,77.2893471,09-07-2026 21:00:00
Yamuna Nagar,"Gobind Pura, Yamuna Nagar - HSPCB",OZONE,67,30.1480566,77.2893471,09-07-2026 21:00:00
Baddi,"HIMUDA Complex Phase-1, Baddi - HPPCB",NO2,17,30.943887,76.801991,09-07-2026 21:00:00
Srinagar,"Khunmoh, Srinagar - JKPCC",NO2,13,34.06313,74.96017,09-07-2026 21:00:00
Srinagar,"Khunmoh, Srinagar - JKPCC",OZONE,,34.06313,74.96017,09-07-2026 21:00:00
Srinagar,"Rajbagh, Srinagar - JKPCC",PM10,38,34.066206,74.81982,09-07-2026 21:00:00
Bhopal,"Idgah Hills, Bhopal - MPPCB",PM10,103,23.264759,77.381568,09-07-2026 21:00:00
Bhopal,"Idgah Hills, Bhopal - MPPCB",SO2,5,23.264759,77.381568,09-07-2026 21:00:00
Bhopal,"Idgah Hills, Bhopal - MPPCB",CO,5,23.264759,77.381568,09-07-2026 21:00:00
Dewas,"Bhopal Chauraha, Dewas - MPPCB",NH3,3,22.9682591,76.064118,09-07-2026 21:00:00
Gwalior,"Maharaj Bada, Gwalior - MPPCB",NH3,1,26.200388,78.147714,09-07-2026 21:00:00
Gwalior,"Maharaj Bada, Gwalior - MPPCB",CO,70,26.200388,78.147714,09-07-2026 21:00:00
Gwalior,"Deen Dayal Nagar, Gwalior - MPPCB",NO2,21,26.259242,78.216432,09-07-2026 21:00:00
Gwalior,"Deen Dayal Nagar, Gwalior - MPPCB",SO2,6,26.259242,78.216432,09-07-2026 21:00:00
Gwalior,"City Center, Gwalior - MPPCB",PM10,37,26.203442,78.193251,09-07-2026 21:00:00
Gwalior,"City Center, Gwalior - MPPCB",NH3,5,26.203442,78.193251,09-07-2026 21:00:00
Indore,"Regional Park, Indore - IMC",PM10,38,22.678,75.8559,09-07-2026 21:00:00
Kannur,"Thavakkara, Kannur - Kerala PCB",OZONE,28,11.875,75.3732,09-07-2026 21:00:00
Kollam,"Polayathode, Kollam - Kerala PCB",NH3,1,8.8787,76.6073,09-07-2026 21:00:00
Thiruvananthapuram,"Plammoodu, Thiruvananthapuram - Kerala PCB",NH3,0,8.5149093,76.9435879,09-07-2026 21:00:00
Thiruvananthapuram,"Kariavattom, Thiruvananthapuram - Kerala PCB",NO2,6,8.5637,76.8865,09-07-2026 21:00:00
Thrissur,"Corporation Ground, Thrissur - Kerala PCB",NO2,,10.5324,76.2159,09-07-2026 21:00:00
Thrissur,"Corporation Ground, Thrissur - Kerala PCB",CO,19,10.5324,76.2159,09-07-2026 21:00:00
Bhopal,"T T Nagar, Bhopal - MPPCB",PM10,85,23.233584,77.400574,09-07-2026 21:00:00
Hubballi,"Lingaraj Nagar, Hubballi - KSPCB",PM10,49,15.3714823,75.1160168,09-07-2026 21:00:00
Hubballi,"Lingaraj Nagar, Hubballi - KSPCB",SO2,2,15.3714823,75.1160168,09-07-2026 21:00:00
Kalaburagi,"Mahatma Basaveswar Colony, Kalaburgi - KSPCB",SO2,3,17.336318,76.847397,09-07-2026 21:00:00
Karwar,"KHB Colony, Karwar - KSPCB",CO,33,14.816666,74.141003,09-07-2026 21:00:00
Koppal,"Diwator Nagar, Koppal - KSPCB",SO2,14,15.34763,76.181767,09-07-2026 21:00:00
Koppal,"Diwator Nagar, Koppal - KSPCB",OZONE,6,15.34763,76.181767,09-07-2026 21:00:00
Mangalore,"Kadri, Mangalore - KSPCB",PM2.5,52,12.88925,74.853,09-07-2026 21:00:00
Mangalore,"Kadri, Mangalore - KSPCB",PM10,67,12.88925,74.853,09-07-2026 21:00:00
Mangalore,"Kadri, Mangalore - KSPCB",OZONE,37,12.88925,74.853,09-07-2026 21:00:00
Mysuru,"Hebbal 1st Stage, Mysuru - KSPCB",PM10,63,12.21041,76.37376,09-07-2026 21:00:00
Mysuru,"Hebbal 1st Stage, Mysuru - KSPCB",CO,20,12.21041,76.37376,09-07-2026 21:00:00
Ramanagara,"Vijay Nagar, Ramanagara - KSPCB",PM2.5,26,12.733409,77.298051,09-07-2026 21:00:00
Shivamogga,"Vinoba Nagara, Shivamogga - KSPCB",NO2,24,13.94,75.555917,09-07-2026 21:00:00
Shivamogga,"Vinoba Nagara, Shivamogga - KSPCB",OZONE,45,13.94,75.555917,09-07-2026 21:00:00
Vijayapura,"Ibrahimpur, Vijayapura - KSPCB",OZONE,16,16.802639,75.722694,09-07-2026 21:00:00
Karnal,"Sector-12, Karnal - HSPCB",SO2,13,29.6953,77.0027,09-07-2026 21:00:00
Karnal,"Sector-12, Karnal - HSPCB",OZONE,7,29.6953,77.0027,09-07-2026 21:00:00
Kurukshetra,"Sector-7, Kurukshetra - HSPCB",SO2,6,29.966942,76.875879,09-07-2026 21:00:00
Panchgaon,"Amity University, Panchgaon - IITM",CO,30,28.3153,76.9143,09-07-2026 21:00:00
Panchgaon,"Amity University, Panchgaon - IITM",OZONE,42,28.3153,76.9143,09-07-2026 21:00:00
Panchkula,"Sector-6, Panchkula - HSPCB",NO2,24,30.7057778,76.8531805555555,09-07-2026 21:00:00
Panchkula,"Sector-6, Panchkula - HSPCB",CO,19,30.7057778,76.8531805555555,09-07-2026 21:00:00
Ambernath,"Chinchpada, Ambernath - MPCB",PM10,,19.215784,73.199781,09-07-2026 21:00:00
Ambernath,"Chinchpada, Ambernath - MPCB",SO2,7,19.215784,73.199781,09-07-2026 21:00:00
Ambernath,"Chinchpada, Ambernath - MPCB",CO,10,19.215784,73.199781,09-07-2026 21:00:00
Ambernath,"Chinchpada, Ambernath - MPCB",OZONE,8,19.215784,73.199781,09-07-2026 21:00:00
Amravati,"Shri Shivaji Science College, Amravati - MPCB",NO2,5,20.939198,77.765701,09-07-2026 21:00:00
Amravati,"Shri Shivaji Science College, Amravati - MPCB",NH3,5,20.939198,77.765701,09-07-2026 21:00:00
Amravati,"Shri Shivaji Science College, Amravati - MPCB",CO,20,20.939198,77.765701,09-07-2026 21:00:00
Amravati,"Shri Shivaji Science College, Amravati - MPCB",OZONE,16,20.939198,77.765701,09-07-2026 21:00:00
Amravati,"Shivneri Colony, Amravati - MPCB",OZONE,13,20.9402359,77.7895248,09-07-2026 21:00:00
Aurangabad,"More Chowk Waluj, Aurangabad - MPCB",NO2,10,19.8389439,75.244448,09-07-2026 21:00:00
Aurangabad,"MIDC Chilkalthana, Aurangabad - MPCB",PM2.5,,19.87562,75.38731,09-07-2026 21:00:00
Aurangabad,"MIDC Chilkalthana, Aurangabad - MPCB",PM10,143,19.87562,75.38731,09-07-2026 21:00:00
Aurangabad,"MIDC Chilkalthana, Aurangabad - MPCB",NH3,,19.87562,75.38731,09-07-2026 21:00:00
Aurangabad,"Rachnakar Colony, Aurangabad - MPCB",OZONE,21,19.863756,75.321188,09-07-2026 21:00:00
Badlapur,"Katrap, Badlapur - MPCB",SO2,3,19.16485,73.23409,09-07-2026 21:00:00
Belapur,"CBD Belapur, Belapur - MPCB",PM2.5,40,19.0243902,73.0406721,09-07-2026 21:00:00
Belapur,"CBD Belapur, Belapur - MPCB",SO2,4,19.0243902,73.0406721,09-07-2026 21:00:00
Bhiwandi,"Gokul Nagar, Bhiwandi - MPCB",NO2,25,19.309073,73.057223,09-07-2026 21:00:00
Nagpur,"Opp GPO Civil Lines, Nagpur - MPCB",PM10,49,21.152875,79.0517531,09-07-2026 21:00:00
Nagpur,"Opp GPO Civil Lines, Nagpur - MPCB",NH3,5,21.152875,79.0517531,09-07-2026 21:00:00
Nagpur,"Opp GPO Civil Lines, Nagpur - MPCB",CO,49,21.152875,79.0517531,09-07-2026 21:00:00
Nanded,"Sneh Nagar, Nanded - MPCB",NO2,8,19.173852,77.296291,09-07-2026 21:00:00
Nashik,"Gangapur Road, Nashik - MPCB",SO2,3,20.0073285,73.7762427,09-07-2026 21:00:00
Nashik,"Pandav Nagari, Nashik - MPCB",PM10,43,19.9591346,73.7788008,09-07-2026 21:00:00
Nashik,"Pandav Nagari, Nashik - MPCB",OZONE,15,19.9591346,73.7788008,09-07-2026 21:00:00
Nashik,"Hirawadi, Nashik - MPCB",NH3,,20.021503,73.813844,09-07-2026 21:00:00
Nashik,"MIDC Ambad, Nashik - MPCB",NH3,2,19.95022,73.73148,09-07-2026 21:00:00
Nashik,"MIDC Ambad, Nashik - MPCB",SO2,2,19.95022,73.73148,09-07-2026 21:00:00
Navi Mumbai,"Sector-2E Kalamboli, Navi Mumbai - MPCB",CO,16,19.02579,73.10297,09-07-2026 21:00:00
Navi Mumbai,"Sanpada, Navi Mumbai - MPCB",PM2.5,31,19.0575752,73.0151367,09-07-2026 21:00:00
Navi Mumbai,"Sanpada, Navi Mumbai - MPCB",NO2,5,19.0575752,73.0151367,09-07-2026 21:00:00
Navi Mumbai,"Sanpada, Navi Mumbai - MPCB",SO2,4,19.0575752,73.0151367,09-07-2026 21:00:00
Navi Mumbai,"Sanpada, Navi Mumbai - MPCB",CO,7,19.0575752,73.0151367,09-07-2026 21:00:00
Navi Mumbai,"Mahape, Navi Mumbai - MPCB",SO2,17,19.1135051,73.008978,09-07-2026 21:00:00
Mumbai,"Shivaji Nagar, Mumbai - BMC",NH3,5,19.060498,72.923356,09-07-2026 21:00:00
Mumbai,"Malad West, Mumbai - IITM",PM10,74,19.19709,72.82204,09-07-2026 21:00:00
Mumbai,"Malad West, Mumbai - IITM",NH3,3,19.19709,72.82204,09-07-2026 21:00:00
Mumbai,"Mazgaon, Mumbai - IITM",PM2.5,35,18.96702,72.84214,09-07-2026 21:00:00
Mumbai,"Mazgaon, Mumbai - IITM",OZONE,14,18.96702,72.84214,09-07-2026 21:00:00
Mumbai,"Chembur, Mumbai - MPCB",PM2.5,26,19.0364585,72.8954371,09-07-2026 21:00:00
Mumbai,"Deonar, Mumbai - IITM",NO2,5,19.04946,72.923,09-07-2026 21:00:00
Mumbai,"Mindspace-Malad West, Mumbai - MPCB",PM10,,19.1878657,72.8304069,09-07-2026 21:00:00
Mumbai,"Mindspace-Malad West, Mumbai - MPCB",NO2,,19.1878657,72.8304069,09-07-2026 21:00:00
Mumbai,"Mindspace-Malad West, Mumbai - MPCB",SO2,,19.1878657,72.8304069,09-07-2026 21:00:00
Mumbai,"Kandivali West, Mumbai - BMC",PM10,34,19.215859,72.831718,09-07-2026 21:00:00
Mumbai,"Kandivali West, Mumbai - BMC",NH3,2,19.215859,72.831718,09-07-2026 21:00:00
Mumbai,"Kandivali West, Mumbai - BMC",SO2,1,19.215859,72.831718,09-07-2026 21:00:00
Nagpur,"Mahal, Nagpur - MPCB",NO2,14,21.14472,79.107595,09-07-2026 21:00:00
Nagpur,"Mahal, Nagpur - MPCB",CO,27,21.14472,79.107595,09-07-2026 21:00:00
Nagpur,"Ram Nagar, Nagpur - MPCB",PM2.5,33,21.143383,79.048912,09-07-2026 21:00:00
Mumbai,"Bandra Kurla Complex, Mumbai - IITM",NH3,3,19.053536,72.84643,09-07-2026 21:00:00
Mumbai,"Borivali East, Mumbai - IITM",NO2,22,19.23241,72.86895,09-07-2026 21:00:00
Mumbai,"Borivali East, Mumbai - IITM",NH3,9,19.23241,72.86895,09-07-2026 21:00:00
Mumbai,"Borivali East, Mumbai - IITM",OZONE,50,19.23241,72.86895,09-07-2026 21:00:00
Mumbai,"Kurla, Mumbai - MPCB",NH3,,19.0863,72.8888,09-07-2026 21:00:00
Mumbai,"Siddharth Nagar-Worli, Mumbai - IITM",PM2.5,29,19.000083,72.813993,09-07-2026 21:00:00
Mumbai,"Siddharth Nagar-Worli, Mumbai - IITM",NO2,21,19.000083,72.813993,09-07-2026 21:00:00
Mumbai,"Siddharth Nagar-Worli, Mumbai - IITM",CO,2,19.000083,72.813993,09-07-2026 21:00:00
Mumbai,"Powai, Mumbai - MPCB",PM2.5,,19.1375,72.915056,09-07-2026 21:00:00
Mumbai,"Powai, Mumbai - MPCB",PM10,,19.1375,72.915056,09-07-2026 21:00:00
Mumbai,"Powai, Mumbai - MPCB",NO2,6,19.1375,72.915056,09-07-2026 21:00:00
Mumbai,"Powai, Mumbai - MPCB",OZONE,,19.1375,72.915056,09-07-2026 21:00:00
Mumbai,"Worli, Mumbai - MPCB",NO2,10,18.9936162,72.8128113,09-07-2026 21:00:00
Mumbai,"Kherwadi_Bandra East, Mumbai - MPCB",NO2,8,19.0632143,72.8456324,09-07-2026 21:00:00
Mumbai,"Kherwadi_Bandra East, Mumbai - MPCB",NH3,4,19.0632143,72.8456324,09-07-2026 21:00:00
Boisar,"Khaira, Boisar - MPCB",PM10,63,19.786089,72.757971,09-07-2026 21:00:00
Chandrapur,"MIDC Khutala, Chandrapur - MPCB",PM2.5,21,19.9775302,79.2337086,09-07-2026 21:00:00
Dombivli,"Kalu Nagar, Dombivli - MPCB",SO2,4,19.2268427,73.0788456,09-07-2026 21:00:00
Hingoli,"Ashta Vinayak Nagar, Hingoli - MPCB",CO,16,19.710842,77.151824,09-07-2026 21:00:00
Jalgaon,"Prabhat Colony, Jalgaon - MPCB",SO2,1,21.001264,75.565602,09-07-2026 21:00:00
Jalgaon,"Prabhat Colony, Jalgaon - MPCB",OZONE,30,21.001264,75.565602,09-07-2026 21:00:00
Kalyan,"Pimpleshwar Mandir, Kalyan - MPCB",PM2.5,33,19.192056,72.9585188,09-07-2026 21:00:00
Kolhapur,"Shivaji University, Kolhapur - MPCB",PM2.5,20,16.6870449,74.2505872,09-07-2026 21:00:00
Kolhapur,"Shivaji University, Kolhapur - MPCB",NO2,,16.6870449,74.2505872,09-07-2026 21:00:00
Navi Mumbai,"Tondare-Taloja, Navi Mumbai - MPCB",NH3,7,19.063,73.1209,09-07-2026 21:00:00
Navi Mumbai,"Kopripada-Vashi, Navi Mumbai - MPCB",PM10,52,19.090337,73.014232,09-07-2026 21:00:00
Navi Mumbai,"Kopripada-Vashi, Navi Mumbai - MPCB",NO2,13,19.090337,73.014232,09-07-2026 21:00:00
Parbhani,"Masoom Colony, Parbhani - MPCB",PM2.5,35,19.265594,76.761463,09-07-2026 21:00:00
Pimpri-Chinchwad,"Bhosari, Pune - IITM",NH3,,18.640051,73.848956,09-07-2026 21:00:00
Pimpri-Chinchwad,"Bhosari, Pune - IITM",SO2,,18.640051,73.848956,09-07-2026 21:00:00
Pimpri-Chinchwad,"Gavalinagar, Pimpri Chinchwad - MPCB",PM2.5,37,18.63673,73.82487,09-07-2026 21:00:00
Pimpri-Chinchwad,"Gavalinagar, Pimpri Chinchwad - MPCB",NH3,1,18.63673,73.82487,09-07-2026 21:00:00
Pimpri-Chinchwad,"Gavalinagar, Pimpri Chinchwad - MPCB",SO2,1,18.63673,73.82487,09-07-2026 21:00:00
Pimpri-Chinchwad,"Park Street Wakad, Pimpri Chinchwad - MPCB",SO2,1,18.59051,73.77946,09-07-2026 21:00:00
Pune,"Revenue Colony-Shivajinagar, Pune - IITM",NH3,,18.530085,73.849598,09-07-2026 21:00:00
Pune,"Dhankawadi, Pune - IITM",PM10,55,18.459883,73.852193,09-07-2026 21:00:00
Pune,"Dhankawadi, Pune - IITM",NH3,,18.459883,73.852193,09-07-2026 21:00:00
Pune,"Hadapsar, Pune - IITM",PM10,,18.501793,73.927532,09-07-2026 21:00:00
Pune,"Hadapsar, Pune - IITM",SO2,,18.501793,73.927532,09-07-2026 21:00:00
Pune,"Hadapsar, Pune - IITM",CO,64,18.501793,73.927532,09-07-2026 21:00:00
Pune,"Mhada Colony, Pune - IITM",CO,53,18.57304,73.927715,09-07-2026 21:00:00
Pune,"Katraj Dairy, Pune - MPCB",PM2.5,,18.45445,73.854155,09-07-2026 21:00:00
Pune,"Katraj Dairy, Pune - MPCB",CO,17,18.45445,73.854155,09-07-2026 21:00:00
Pune,"Savitribai Phule Pune University, Pune - MPCB",SO2,4,18.547056,73.826908,09-07-2026 21:00:00
Mandideep,"Sector-D Industrial Area, Mandideep - MPPCB",NH3,10,23.10844,77.511428,09-07-2026 21:00:00
Pithampur,"Sector-2 Industrial Area, Pithampur - MPPCB",NH3,,22.624758,75.675238,09-07-2026 21:00:00
Pithampur,"Sector-2 Industrial Area, Pithampur - MPPCB",SO2,,22.624758,75.675238,09-07-2026 21:00:00
Pithampur,"Sector-2 Industrial Area, Pithampur - MPPCB",OZONE,42,22.624758,75.675238,09-07-2026 21:00:00
Singrauli,"Suryakiran Bhawan NCL, Singrauli - MPPCB",OZONE,17,24.10897,82.64558,09-07-2026 21:00:00
Ujjain,"Mahashweta Nagar, Ujjain - MPPCB",NH3,6,23.1633321,75.800225,09-07-2026 21:00:00
Ahmednagar,"Tarakpur, Ahmednagar - MPCB",PM2.5,32,19.10122,74.73339,09-07-2026 21:00:00
Mira-Bhayandar,"Bhayandar West, Mira-Bhayandar - MPCB",OZONE,13,19.296481,72.840923,09-07-2026 21:00:00
Mumbai,"Sewri, Mumbai - BMC",PM2.5,,19.000084,72.85673,09-07-2026 21:00:00
Mumbai,"Sewri, Mumbai - BMC",SO2,,19.000084,72.85673,09-07-2026 21:00:00
Mumbai,"Sion, Mumbai - MPCB",OZONE,,19.047,72.8746,09-07-2026 21:00:00
Mumbai,"Chhatrapati Shivaji Intl. Airport (T2), Mumbai - MPCB",NH3,0,19.10078,72.87462,09-07-2026 21:00:00
Mumbai,"Ghatkopar, Mumbai - BMC",PM10,88,19.083694,72.920967,09-07-2026 21:00:00
Jaipur,"Adarsh Nagar, Jaipur - RSPCB",PM10,63,26.902909,75.836858,09-07-2026 21:00:00
Jaipur,"Adarsh Nagar, Jaipur - RSPCB",OZONE,49,26.902909,75.836858,09-07-2026 21:00:00
Jaipur,"Shastri Nagar, Jaipur - RSPCB",PM2.5,65,26.9502929,75.730943,09-07-2026 21:00:00
Jaipur,"Shastri Nagar, Jaipur - RSPCB",NH3,8,26.9502929,75.730943,09-07-2026 21:00:00
Jaipur,"Mansarovar Sector-12, Jaipur - RSPCB",NO2,16,26.843698,75.766894,09-07-2026 21:00:00
Jaipur,"Mansarovar Sector-12, Jaipur - RSPCB",CO,27,26.843698,75.766894,09-07-2026 21:00:00
Jaipur,"Mansarovar Sector-12, Jaipur - RSPCB",OZONE,9,26.843698,75.766894,09-07-2026 21:00:00
Jalore,"Mudtra Sili, Jalore - RSPCB",PM10,103,25.344694,72.626208,09-07-2026 21:00:00
Jalore,"Mudtra Sili, Jalore - RSPCB",OZONE,49,25.344694,72.626208,09-07-2026 21:00:00
Jhalawar,"Rajlaxmi Nagar, Jhalawar - RSPCB",OZONE,21,24.588397,76.172782,09-07-2026 21:00:00
Jhunjhunu,"Indra Nagar, Jhunjhunu - RSPCB",PM10,46,28.108988,75.386577,09-07-2026 21:00:00
Jhunjhunu,"Indra Nagar, Jhunjhunu - RSPCB",NO2,11,28.108988,75.386577,09-07-2026 21:00:00
Jhunjhunu,"Indra Nagar, Jhunjhunu - RSPCB",OZONE,96,28.108988,75.386577,09-07-2026 21:00:00
Jodhpur,"Mandor, Jodhpur - RSPCB",PM10,105,26.358805,73.047444,09-07-2026 21:00:00
Jodhpur,"Mandor, Jodhpur - RSPCB",NH3,6,26.358805,73.047444,09-07-2026 21:00:00
Jodhpur,"Mandor, Jodhpur - RSPCB",CO,16,26.358805,73.047444,09-07-2026 21:00:00
Jodhpur,"Mandor, Jodhpur - RSPCB",OZONE,19,26.358805,73.047444,09-07-2026 21:00:00
Jodhpur,"Collectorate, Jodhpur - RSPCB",PM10,84,26.268249,73.0193853,09-07-2026 21:00:00
Jodhpur,"Collectorate, Jodhpur - RSPCB",NO2,18,26.268249,73.0193853,09-07-2026 21:00:00
Jodhpur,"Collectorate, Jodhpur - RSPCB",NH3,5,26.268249,73.0193853,09-07-2026 21:00:00
Brajrajnagar,"GM Office, Brajrajnagar - OSPCB",NH3,5,21.8004996,83.8396977,09-07-2026 21:00:00
Byasanagar,"Ferro Chrome Colony, Byasanagar - OSPCB",SO2,6,20.94185,86.1151,09-07-2026 21:00:00
Byasanagar,"Ferro Chrome Colony, Byasanagar - OSPCB",CO,41,20.94185,86.1151,09-07-2026 21:00:00
Rairangpur,"Divisional Forest Office, Rairangpur - OSPCB",NH3,3,22.265816,86.174829,09-07-2026 21:00:00
Rairangpur,"Divisional Forest Office, Rairangpur - OSPCB",SO2,7,22.265816,86.174829,09-07-2026 21:00:00
Rourkela,"Raghunathpali, Rourkela - OSPCB",NH3,2,22.220833,84.809444,09-07-2026 21:00:00
Rourkela,"Sector-2, Rourkela - OSPCB",PM2.5,50,22.245,84.88111111,09-07-2026 21:00:00
Rourkela,"Sector-2, Rourkela - OSPCB",PM10,34,22.245,84.88111111,09-07-2026 21:00:00
Rourkela,"Sector-2, Rourkela - OSPCB",NO2,11,22.245,84.88111111,09-07-2026 21:00:00
Rourkela,"Fertilizer Township, Rourkela - OSPCB",PM2.5,67,22.18972222,84.86277778,09-07-2026 21:00:00
Rourkela,"Fertilizer Township, Rourkela - OSPCB",NO2,11,22.18972222,84.86277778,09-07-2026 21:00:00
Suakati,"OMC Colony, Suakati - OSPCB",NH3,3,21.606865,85.510538,09-07-2026 21:00:00
Suakati,"OMC Colony, Suakati - OSPCB",OZONE,16,21.606865,85.510538,09-07-2026 21:00:00
Talcher,"Talcher Coalfields,Talcher - OSPCB",NO2,46,20.9360711,85.1707021,09-07-2026 21:00:00
Jodhpur,"Jhalamand, Jodhpur - RSPCB",PM2.5,50,26.215415,73.070156,09-07-2026 21:00:00
Jodhpur,"Samrat Ashok Udhyan, Jodhpur - RSPCB",PM2.5,53,26.253384,72.976571,09-07-2026 21:00:00
Jodhpur,"Samrat Ashok Udhyan, Jodhpur - RSPCB",PM10,91,26.253384,72.976571,09-07-2026 21:00:00
Jodhpur,"Samrat Ashok Udhyan, Jodhpur - RSPCB",NH3,5,26.253384,72.976571,09-07-2026 21:00:00
Kota,"Shrinath Puram, Kota - RSPCB",PM2.5,61,25.14389,75.821256,09-07-2026 21:00:00
Kota,"Shrinath Puram, Kota - RSPCB",SO2,8,25.14389,75.821256,09-07-2026 21:00:00
Kota,"Nayapura, Kota - RSPCB",PM10,84,25.196024,75.855668,09-07-2026 21:00:00
Kota,"Nayapura, Kota - RSPCB",NH3,4,25.196024,75.855668,09-07-2026 21:00:00
Kota,"Nayapura, Kota - RSPCB",CO,20,25.196024,75.855668,09-07-2026 21:00:00
Kota,"Dhanmandi, Kota - RSPCB",SO2,4,25.16409,75.858137,09-07-2026 21:00:00
Kota,"Dhanmandi, Kota - RSPCB",CO,25,25.16409,75.858137,09-07-2026 21:00:00
Nagaur,"Karni Colony, Nagaur - RSPCB",CO,15,27.213494,73.734444,09-07-2026 21:00:00
Nagaur,"Karni Colony, Nagaur - RSPCB",OZONE,25,27.213494,73.734444,09-07-2026 21:00:00
Pali,"Indira Colony Vistar, Pali - RSPCB",NH3,6,25.771061,73.340227,09-07-2026 21:00:00
Pali,"Indira Colony Vistar, Pali - RSPCB",CO,22,25.771061,73.340227,09-07-2026 21:00:00
Shillong,"Lumpyngngad, Shillong - Meghalaya PCB",CO,9,25.5586,91.8985,09-07-2026 21:00:00
Aizawl,"Sikulpuikawn, Aizawl - Mizoram PCB",CO,3,23.7176342,92.7192841,09-07-2026 21:00:00
Angul,"Hakimapada, Angul - OSPCB",PM2.5,39,20.832874,85.104082,09-07-2026 21:00:00
Angul,"Hakimapada, Angul - OSPCB",SO2,13,20.832874,85.104082,09-07-2026 21:00:00
Balasore,"Kalidaspur, Balasore - OSPCB",NO2,11,21.51161,86.89088,09-07-2026 21:00:00
Barbil,"Forest Office, Barbil - OSPCB",SO2,6,22.1166054,85.3945546,09-07-2026 21:00:00
Baripada,"Meher Colony, Baripada - OSPCB",PM2.5,39,21.941841,86.728318,09-07-2026 21:00:00
Baripada,"Meher Colony, Baripada - OSPCB",NO2,11,21.941841,86.728318,09-07-2026 21:00:00
Baripada,"Meher Colony, Baripada - OSPCB",NH3,2,21.941841,86.728318,09-07-2026 21:00:00
